FMT, 128, 89, FMT, BBnNZ, Type,Length,Name,Format,Columns
FMT, 129, 31, PARM, QNf, TimeUS,Name,Value
FMT, 130, 50, GPS, QBIHBcLLeeEefB, TimeUS,Status,GMS,GWk,NSats,HDop,Lat,Lng,RAlt,Alt,Spd,GCrs,VZ,U
FMT, 131, 50, GPS2, QBIHBcLLeeEefB, TimeUS,Status,GMS,GWk,NSats,HDop,Lat,Lng,RAlt,Alt,Spd,GCrs,VZ,U
FMT, 195, 19, GPA, QCCCC, TimeUS,VDop,HAcc,VAcc,SAcc
FMT, 196, 19, GPA2, QCCCC, TimeUS,VDop,HAcc,VAcc,SAcc
FMT, 132, 49, IMU, QffffffIIfBB, TimeUS,GyrX,GyrY,GyrZ,AccX,AccY,AccZ,ErrG,ErrA,Temp,GyHlt,AcHlt
FMT, 133, 75, MSG, QZ, TimeUS,Message
FMT, 134, 39, RCIN, Qhhhhhhhhhhhhhh, TimeUS,C1,C2,C3,C4,C5,C6,C7,C8,C9,C10,C11,C12,C13,C14
FMT, 135, 35, RCOU, Qhhhhhhhhhhhh, TimeUS,Ch1,Ch2,Ch3,Ch4,Ch5,Ch6,Ch7,Ch8,Ch9,Ch10,Ch11,Ch12
FMT, 136, 15, RSSI, Qf, TimeUS,RXRSSI
FMT, 138, 25, BARO, Qffcf, TimeUS,Alt,Press,Temp,CRt
FMT, 139, 17, POWR, QCCH, TimeUS,Vcc,VServo,Flags
FMT, 146, 45, CMD, QHHHfffffff, TimeUS,CTot,CNum,CId,Prm1,Prm2,Prm3,Prm4,Lat,Lng,Alt
FMT, 147, 20, RAD, QBBBBBHH, TimeUS,RSSI,RemRSSI,TxBuf,Noise,RemNoise,RxErrors,Fixed
FMT, 149, 39, CAM, QIHLLeeccC, TimeUS,GPSTime,GPSWeek,Lat,Lng,Alt,RelAlt,Roll,Pitch,Yaw
FMT, 166, 29, ARSP, Qffcff, TimeUS,Airspeed,DiffPress,Temp,RawPress,Offset
FMT, 168, 25, CURR, QhhhHfh, TimeUS,Throttle,Volt,Curr,Vcc,CurrTot,Volt2
FMT, 167, 27, ATT, QccccCCCC, TimeUS,DesRoll,Roll,DesPitch,Pitch,DesYaw,Yaw,ErrRP,ErrYaw
FMT, 169, 30, MAG, QhhhhhhhhhB, TimeUS,MagX,MagY,MagZ,OfsX,OfsY,OfsZ,MOfsX,MOfsY,MOfsZ,Health
FMT, 172, 13, MODE, QMB, TimeUS,Mode,ModeNum
FMT, 197, 15, RFND, QCC, TimeUS,Dist1,Dist2
FMT, 137, 49, IMU2, QffffffIIfBB, TimeUS,GyrX,GyrY,GyrZ,AccX,AccY,AccZ,ErrG,ErrA,Temp,GyHlt,AcHlt
FMT, 150, 49, IMU3, QffffffIIfBB, TimeUS,GyrX,GyrY,GyrZ,AccX,AccY,AccZ,ErrG,ErrA,Temp,GyHlt,AcHlt
FMT, 140, 29, AHR2, QccCfLL, TimeUS,Roll,Pitch,Yaw,Alt,Lat,Lng
FMT, 183, 27, POS, QLLff, TimeUS,Lat,Lng,Alt,RelAlt
FMT, 141, 29, SIM, QccCfLL, TimeUS,Roll,Pitch,Yaw,Alt,Lat,Lng
FMT, 142, 47, EKF1, QccCffffffccc, TimeUS,Roll,Pitch,Yaw,VN,VE,VD,PN,PE,PD,GX,GY,GZ
FMT, 143, 30, EKF2, Qbbbcchhhhhh, TimeUS,Ratio,AZ1bias,AZ2bias,VWN,VWE,MN,ME,MD,MX,MY,MZ
FMT, 144, 31, EKF3, Qcccccchhhc, TimeUS,IVN,IVE,IVD,IPN,IPE,IPD,IMX,IMY,IMZ,IVT
FMT, 145, 33, EKF4, QcccccccbbBBHH, TimeUS,SV,SP,SH,SMX,SMY,SMZ,SVT,OFN,EFE,FS,TS,SS,GPS
FMT, 164, 28, EKF5, QBhhhcccCC, TimeUS,normInnov,FIX,FIY,AFI,HAGL,offset,RI,meaRng,errHAGL
FMT, 199, 47, NKF1, QccCffffffccc, TimeUS,Roll,Pitch,Yaw,VN,VE,VD,PN,PE,PD,GX,GY,GZ
FMT, 200, 34, NKF2, Qbccccchhhhhh, TimeUS,AZbias,GSX,GSY,GSZ,VWN,VWE,MN,ME,MD,MX,MY,MZ
FMT, 201, 33, NKF3, Qcccccchhhcc, TimeUS,IVN,IVE,IVD,IPN,IPE,IPD,IMX,IMY,IMZ,IYAW,IVT
FMT, 202, 33, NKF4, QcccccfbbBBHH, TimeUS,SV,SP,SH,SM,SVT,errRP,OFN,EFE,FS,TS,SS,GPS
FMT, 203, 28, NKF5, QBhhhcccCC, TimeUS,normInnov,FIX,FIY,AFI,HAGL,offset,RI,meaRng,errHAGL
FMT, 151, 34, TERR, QBLLHffHH, TimeUS,Status,Lat,Lng,Spacing,TerrH,CHeight,Pending,Loaded
FMT, 152, 18, UBX1, QBHBBH, TimeUS,Instance,noisePerMS,jamInd,aPower,agcCnt
FMT, 153, 16, UBX2, QBbBbB, TimeUS,Instance,ofsI,magI,ofsQ,magQ
FMT, 154, 18, UBY1, QBHBBH, TimeUS,Instance,noisePerMS,jamInd,aPower,agcCnt
FMT, 155, 16, UBY2, QBbBbB, TimeUS,Instance,ofsI,magI,ofsQ,magQ
FMT, 173, 42, GRAW, QIHBBddfBbB, TimeUS,WkMS,Week,numSV,sv,cpMes,prMes,doMes,mesQI,cno,lli
FMT, 174, 24, GRXH, QdHbBB, TimeUS,rcvTime,week,leapS,numMeas,recStat
FMT, 175, 41, GRXS, QddfBBBHBBBBB, TimeUS,prMes,cpMes,doMes,gnss,sv,freq,lock,cno,prD,cpD,doD,trk
FMT, 176, 63, SBFE, QIHBBdddfffff, TimeUS,TOW,WN,Mode,Err,Lat,Long,Height,Undul,Vn,Ve,Vu,COG
FMT, 156, 19, ESC1, Qcccc, TimeUS,RPM,Volt,Curr,Temp
FMT, 157, 19, ESC2, Qcccc, TimeUS,RPM,Volt,Curr,Temp
FMT, 158, 19, ESC3, Qcccc, TimeUS,RPM,Volt,Curr,Temp
FMT, 159, 19, ESC4, Qcccc, TimeUS,RPM,Volt,Curr,Temp
FMT, 160, 19, ESC5, Qcccc, TimeUS,RPM,Volt,Curr,Temp
FMT, 161, 19, ESC6, Qcccc, TimeUS,RPM,Volt,Curr,Temp
FMT, 162, 19, ESC7, Qcccc, TimeUS,RPM,Volt,Curr,Temp
FMT, 163, 19, ESC8, Qcccc, TimeUS,RPM,Volt,Curr,Temp
FMT, 170, 30, MAG2, QhhhhhhhhhB, TimeUS,MagX,MagY,MagZ,OfsX,OfsY,OfsZ,MOfsX,MOfsY,MOfsZ,Health
FMT, 171, 30, MAG3, QhhhhhhhhhB, TimeUS,MagX,MagY,MagZ,OfsX,OfsY,OfsZ,MOfsX,MOfsY,MOfsZ,Health
FMT, 177, 31, ACC1, QQfff, TimeUS,SampleUS,AccX,AccY,AccZ
FMT, 178, 31, ACC2, QQfff, TimeUS,SampleUS,AccX,AccY,AccZ
FMT, 179, 31, ACC3, QQfff, TimeUS,SampleUS,AccX,AccY,AccZ
FMT, 180, 31, GYR1, QQfff, TimeUS,SampleUS,GyrX,GyrY,GyrZ
FMT, 181, 31, GYR2, QQfff, TimeUS,SampleUS,GyrX,GyrY,GyrZ
FMT, 182, 31, GYR3, QQfff, TimeUS,SampleUS,GyrX,GyrY,GyrZ
FMT, 184, 35, PIDR, Qffffff, TimeUS,Des,P,I,D,FF,AFF
FMT, 185, 35, PIDP, Qffffff, TimeUS,Des,P,I,D,FF,AFF
FMT, 186, 35, PIDY, Qffffff, TimeUS,Des,P,I,D,FF,AFF
FMT, 187, 35, PIDA, Qffffff, TimeUS,Des,P,I,D,FF,AFF
FMT, 188, 35, PIDS, Qffffff, TimeUS,Des,P,I,D,FF,AFF
FMT, 165, 25, BAR2, Qffcf, TimeUS,Alt,Press,Temp,CRt
FMT, 198, 25, BAR3, Qffcf, TimeUS,Alt,Press,Temp,CRt
FMT, 189, 35, VIBE, QfffIII, TimeUS,VibeX,VibeY,VibeZ,Clip0,Clip1,Clip2
FMT, 190, 43, IMT, Qffffffff, TimeUS,DelT,DelvT,DelAX,DelAY,DelAZ,DelVX,DelVY,DelVZ
FMT, 191, 43, IMT2, Qffffffff, TimeUS,DelT,DelvT,DelAX,DelAY,DelAZ,DelVX,DelVY,DelVZ
FMT, 192, 43, IMT3, Qffffffff, TimeUS,DelT,DelvT,DelAX,DelAY,DelAZ,DelVX,DelVY,DelVZ
FMT, 193, 24, ORGN, QBLLe, TimeUS,Type,Lat,Lng,Alt
FMT, 194, 19, RPM, Qff, TimeUS,rpm1,rpm2
FMT, 25, 41, ATUN, QBBfffffff, TimeUS,Axis,TuneStep,Targ,Min,Max,RP,RD,SP,ddt
FMT, 26, 19, ATDE, Qff, TimeUS,Angle,Rate
FMT, 31, 22, PTUN, QBfHHH, TimeUS,Param,TunVal,CtrlIn,TunLo,TunHi
FMT, 12, 28, OF, QBffff, TimeUS,Qual,flowX,flowY,bodyX,bodyY
FMT, 5, 51, NTUN, Qffffffffff, TimeUS,DPosX,DPosY,PosX,PosY,DVelX,DVelY,VelX,VelY,DAccX,DAccY
FMT, 4, 39, CTUN, Qhhfffecchh, TimeUS,ThrIn,AngBst,ThrOut,DAlt,Alt,BarAlt,DSAlt,SAlt,DCRt,CRt
FMT, 6, 24, PM, QHHIhBH, TimeUS,NLon,NLoop,MaxT,PMT,I2CErr,INSErr
FMT, 29, 59, RATE, Qffffffffffff, TimeUS,RDes,R,ROut,PDes,P,POut,YDes,Y,YOut,ADes,A,AOut
FMT, 30, 27, MOTB, Qffff, TimeUS,LiftMax,BatVolt,BatRes,ThLimit
FMT, 10, 11, STRT, Q, TimeUS
FMT, 13, 12, EV, QB, TimeUS,Id
FMT, 20, 14, D16, QBh, TimeUS,Id,Value
FMT, 21, 14, DU16, QBH, TimeUS,Id,Value
FMT, 22, 16, D32, QBi, TimeUS,Id,Value
FMT, 23, 16, DU32, QBI, TimeUS,Id,Value
FMT, 24, 16, DFLT, QBf, TimeUS,Id,Value
FMT, 19, 13, ERR, QBB, TimeUS,Subsys,ECode
FMT, 32, 15, HELI, Qhh, TimeUS,DRRPM,ERRPM
FMT, 33, 36, PL, QBffffff, TimeUS,Heal,bX,bY,eX,eY,pX,pY
EV, 70704264, 10
MODE, 70704268, AltHold, 2
MSG, 70807870, APM:Copter V3.4-dev (461eff25)
MSG, 70807879, PX4: c3406165 NuttX: d48fa307
MSG, 70807952, PX4v2 003A0027 34324708 31323533
MSG, 70807962, New mission
CMD, 70807973, 7, 0, 16, 0, 0, 0, 0, 42.3562, -71.29913, 5.92
CMD, 70807986, 7, 1, 22, 0, 0, 0, 0, 0, 0, 4
CMD, 70807999, 7, 2, 201, 0, 0, 0, 0, 38.93508, -77.06123, 1
CMD, 70808011, 7, 3, 16, 0, 0, 0, 0, 38.93495, -77.06188, 29
CMD, 70808036, 7, 4, 16, 0, 0, 0, 0, 38.93505, -77.06138, 6.5
CMD, 70808048, 7, 5, 178, 0, 1, 0, 0, 0, 0, 0
CMD, 70808061, 7, 6, 16, 0, 0, 0, 0, 38.93507, -77.06133, 4
MSG, 70808068, Frame: QUAD
MODE, 70808075, AltHold, 2
IMU, 70820604, 0.005110437, 0.006489208, -0.02084786, -0.03422244, 0.1074264, -9.772397, 0, 0, 39.43213, 1, 1
IMU2, 70820604, -0.003532599, -0.008717355, -0.02455204, 0.08387849, 0.004399087, -9.687505, 0, 0, 41.25, 1, 1
RAD, 70836677, 151, 153, 0, 42, 36, 0, 0
RAD, 70840559, 151, 153, 0, 42, 36, 0, 0
IMU, 70840585, 0.008226599, 0.009784465, 0.01714316, 0.09272573, 0.1988135, -9.724593, 0, 0, 39.47646, 1, 1
IMU2, 70840585, -0.002728343, -0.002546854, 0.007493195, 0.085618, 0.1465012, -9.745222, 0, 0, 41.125, 1, 1
IMU, 70860644, -0.004299177, 0.003946371, 0.03032985, -0.001002226, 0.006398817, -9.784859, 0, 0, 39.5651, 1, 1
IMU2, 70860644, -0.004442623, -0.01645677, 0.03323589, -0.03529971, 0.06730247, -9.773106, 0, 0, 41.125, 1, 1
IMU, 70880607, -0.002158913, 0.001276134, 0.02695598, -0.01186811, -0.107779, -9.726467, 0, 0, 39.38781, 1, 1
IMU2, 70880607, -3.829898E-05, -0.008428937, 0.03417233, -0.03831306, -0.09266727, -9.735765, 0, 0, 41.125, 1, 1
GPS, 70894268, 3, 73059600, 1866, 9, 1.00, 42.3561976, -71.2991314, 0.00, 6.36, 0.08, 333.89, -0.06, 1
GPA, 70894273, 1.41, 1.24, 1.64, 0.35
CURR, 70894533, 311, 1205, 624, 5201, 10.16635, 0
POWR, 70894538, 5.20, 0.04, 1
MAG, 70894569, 242, 11, 423, -73, 56, 20, 0, 0, 0, 1
MAG2, 70894574, 210, -10, 459, -27, 473, -77, 0, 0, 0, 1
BARO, 70894648, -0.09108109, 100951.4, 40.57, 0.02779756
CTUN, 70894658, 579, 0, 311.7264, 0.3409551, 0.3409551, -0.09, 0.00, 0.00, 9, 9
DU32, 70894666, 7, 353784
ATT, 70901883, 0.00, -0.74, 0.00, -3.73, 336.85, 336.85, 0.02, 0.04
EKF1, 70901904, -0.74, -3.73, 336.85, 0.2418084, -0.02461001, -0.09282144, -3.297483, 2.083907, -0.3404366, -0.09, -0.10, 0.05
EKF2, 70901989, 39, 7, 1, 0.00, 0.00, 219, -56, 456, 0, 0, 0
EKF3, 70901994, 0.23, -0.10, -0.03, 0.04, -0.01, -0.44, -2, 20, 24, 0.00
EKF4, 70902019, 0.05, 0.00, 0.04, 0.01, 0.13, 0.16, 0.00, 0, 0, 0, 16, 9023, 0
AHR2, 70902037, -0.05, -1.16, 338.31, 5.82, 42.3561976, -71.2991314
POS, 70902065, 42.356198, -71.2991316, 6.26, 0.3404366
RATE, 70902071, 40.55878, 40.55878, 1, -6.934334, -6.934334, -15, -30.68491, -30.68491, 6, -2.455235, -2.455235, 312.1775
RCIN, 70902086, 1480, 1506, 1535, 1512, 1147, 992, 992, 992, 0, 0, 0, 0, 0, 0
RCOU, 70902154, 1426, 1426, 1426, 1426, 0, 0, 0, 0, 1000, 1600, 0, 0
VIBE, 70902166, 0.7117393, 1.418118, 0.4525068, 0, 0, 0
IMU, 70902181, 0.003521127, 0.005365123, -0.0107102, -0.09261663, 0.03442002, -9.77104, 0, 0, 39.43213, 1, 1
IMU2, 70902181, 0.007437513, -0.0115872, 0.001836135, -0.1328105, 0.07023747, -9.737195, 0, 0, 41.25, 1, 1
IMU, 70920902, -0.00632687, -0.00361547, -0.04355212, 0.08048965, 0.1200087, -9.797098, 0, 0, 39.47646, 1, 1
IMU2, 70920902, -8.660744E-05, -0.01579808, -0.03004301, -0.05193905, 0.1368981, -9.817956, 0, 0, 41.125, 1, 1
IMU, 70940710, -0.004709702, -0.01093238, -0.0261773, 0.105122, 0.08409764, -9.725701, 0, 0, 39.47646, 1, 1
IMU2, 70940710, -0.01556723, -0.0149846, -0.0225939, -0.01050876, 0.1268219, -9.777326, 0, 0, 41.25, 1, 1
IMU, 70960775, -0.01170171, 0.003719323, 0.007846524, -0.1118741, 0.09468955, -9.729887, 0, 0, 39.47646, 1, 1
IMU2, 70960775, 0.0006984049, -0.00304272, 0.01103583, -0.09781539, 0.1345383, -9.627573, 0, 0, 41.25, 1, 1
IMU, 70980986, -0.02025043, 0.007012203, 0.03141722, -0.02175128, 0.09549594, -9.717525, 0, 0, 39.47646, 1, 1
IMU2, 70980986, 0.003400361, -0.002514395, 0.03616713, 0.06709499, -0.2314191, -9.607562, 0, 0, 41.25, 1, 1
CURR, 70995822, 313, 1210, 1205, 5196, 10.50555, 0
POWR, 70995827, 5.19, 0.04, 1
MAG, 70995895, 243, 27, 434, -73, 56, 20, 0, 0, 0, 1
MAG2, 70995900, 219, -3, 410, -27, 473, -77, 0, 0, 0, 1
BARO, 70995936, -0.2447804, 100953.1, 40.58, -0.03214232
CTUN, 70995946, 578, 0, 313.2379, 0.3278296, 0.3278296, -0.24, 0.00, 0.00, 8, 8
ATT, 71002393, 0.00, -0.77, 0.00, -3.75, 336.88, 336.88, 0.02, 0.06
EKF1, 71002415, -0.77, -3.75, 336.88, 0.2580493, -0.0439168, -0.08312136, -3.28283, 2.084411, -0.3269138, -0.09, -0.10, 0.05
EKF2, 71002422, 39, 7, 1, 0.00, 0.00, 219, -56, 456, 0, 0, 0
EKF3, 71002427, 0.23, -0.10, -0.03, 0.04, -0.01, -0.58, -3, 4, 14, 0.00
EKF4, 71002451, 0.05, 0.00, 0.05, 0.02, 0.03, 0.09, 0.00, 0, 0, 0, 16, 9023, 0
AHR2, 71002462, -0.03, -1.21, 338.36, 5.67, 42.3561976, -71.2991314
POS, 71002490, 42.3561982, -71.2991316, 6.24, 0.3269138
RATE, 71002496, -13.13047, -13.13047, -105, -55.65014, -55.65014, 37, 187.2924, 187.2924, 2, -15.42826, -15.42826, 313.238
RCIN, 71002511, 1479, 1508, 1534, 1513, 1147, 992, 992, 992, 0, 0, 0, 0, 0, 0
RCOU, 71002702, 1428, 1428, 1428, 1428, 0, 0, 0, 0, 1000, 1600, 0, 0
VIBE, 71002767, 1.461839, 2.967486, 1.700509, 0, 0, 0
IMU, 71002783, -0.006723523, -0.01243189, 0.02567114, 0.200434, -0.2440357, -9.641948, 0, 0, 39.52077, 1, 1
IMU2, 71002783, -0.001024057, -0.01076481, 0.04147883, 0.1093034, -0.2576157, -9.644173, 0, 0, 41.25, 1, 1
IMU, 71022129, 0.007592133, -0.01660179, -0.005882129, -0.4368051, 0.08442425, -9.781567, 0, 0, 39.52077, 1, 1
IMU2, 71022129, 0.007390407, -0.02157187, 0.003697642, -0.4810503, 0.2772782, -9.702429, 0, 0, 41.25, 1, 1
IMU, 71042130, 0.001432061, 0.0003530162, -0.02341296, 0.06719416, 0.1840593, -9.694046, 0, 0, 39.52077, 1, 1
IMU2, 71042130, 0.001396419, -0.02302241, -0.01061346, -0.03182602, 0.1743273, -9.634718, 0, 0, 41.25, 1, 1
IMU, 71062134, -0.001870327, 0.002866954, -0.01990158, 0.3060625, 0.06183219, -9.74911, 0, 0, 39.52077, 1, 1
IMU2, 71062134, -0.001196391, -0.02296593, -0.01928294, 0.1141948, 0.0540422, -9.719069, 0, 0, 41.125, 1, 1
IMU, 71083721, -0.00325809, 0.009978347, -0.009018744, -0.455884, -0.1527082, -9.771063, 0, 0, 39.5651, 1, 1
IMU2, 71083721, -0.01307617, -0.006507403, -0.006664773, -0.4243007, -0.122799, -9.768433, 0, 0, 41.25, 1, 1
GPS, 71097239, 3, 73059800, 1866, 9, 1.00, 42.3561975, -71.2991312, -0.03, 6.36, 0.09, 333.89, 0.15, 1
GPA, 71097243, 1.41, 1.24, 1.64, 0.48
CURR, 71097259, 313, 1226, 821, 5209, 10.73696, 0
POWR, 71097263, 5.20, 0.04, 1
MAG, 71097305, 243, 26, 446, -73, 56, 20, 0, 0, 0, 1
MAG2, 71097309, 212, -9, 451, -27, 473, -77, 0, 0, 0, 1
BARO, 71097381, -0.01138514, 100950.6, 40.58, -0.194078
CTUN, 71097392, 578, 0, 313.2384, 0.3062744, 0.3062744, -0.01, 0.00, 0.00, 6, 6
ATT, 71104052, 0.00, -0.77, 0.00, -3.76, 336.85, 336.85, 0.03, 0.04
EKF1, 71104077, -0.77, -3.76, 336.85, 0.2783367, -0.05671422, -0.06643572, -3.266441, 2.083607, -0.3057481, -0.09, -0.10, 0.05
EKF2, 71104084, 38, 7, 1, 0.00, 0.00, 219, -56, 456, 0, 0, 0
EKF3, 71104089, 0.33, -0.03, -0.24, 0.05, -0.02, -0.33, -3, 4, 1, 0.00
EKF4, 71104114, 0.08, 0.01, 0.03, 0.02, 0.03, 0.01, 0.00, 0, 0, 0, 16, 9023, 0
AHR2, 71104161, 0.00, -1.24, 338.34, 5.9, 42.3561975, -71.2991312
POS, 71104189, 42.3561983, -71.2991316, 6.22, 0.3057481
RATE, 71104194, -3.828576, -3.828576, 49, 4.642605, 4.642605, 25, 86.25787, 86.25787, -1, -17.93127, -17.93127, 313.2384
RCIN, 71104209, 1479, 1507, 1534, 1513, 1146, 992, 993, 992, 0, 0, 0, 0, 0, 0
RCOU, 71104277, 1428, 1428, 1428, 1428, 0, 0, 0, 0, 1000, 1600, 0, 0
VIBE, 71104294, 3.778657, 2.436991, 2.243826, 0, 0, 0
IMU, 71104309, -0.003370756, 0.002197997, 0.015925, 0.3472259, -0.03807189, -9.709809, 0, 0, 39.52077, 1, 1
IMU2, 71104309, -0.001109921, -0.004392105, 0.01593725, 0.4868844, -0.1393622, -9.591289, 0, 0, 41.25, 1, 1
IMU, 71125425, 0.0006367903, 0.007085153, 0.03145935, -0.4532527, 0.1169502, -9.837182, 0, 0, 39.47646, 1, 1
IMU2, 71125425, 0.0008382077, -0.006544624, 0.03456518, -0.2313156, 0.03923301, -9.702521, 0, 0, 41.25, 1, 1
IMU, 71146470, 0.009100668, -0.008226291, 0.01278826, 0.2363438, 0.1046611, -9.686868, 0, 0, 39.5651, 1, 1
IMU2, 71146470, -0.004629296, -0.01987663, 0.0217279, 0.3112913, 0.1575698, -9.659708, 0, 0, 41.125, 1, 1
IMU, 71166585, 0.002335314, 0.003787031, 0.000182741, -0.1982549, 0.01938148, -9.669856, 0, 0, 39.5651, 1, 1
IMU2, 71166585, -0.005109917, -0.008795493, 0.0005995141, -0.2835904, -0.05976195, -9.494102, 0, 0, 41.125, 1, 1
IMU, 71187404, -0.001617911, 0.007606111, -0.02269204, 0.4148921, -0.1406234, -9.817772, 0, 0, 39.5651, 1, 1
IMU2, 71187404, 0.006051079, -0.01045886, -0.01127333, 0.4898353, -0.08772557, -9.815765, 0, 0, 41.125, 1, 1
CURR, 71201258, 313, 1211, 663, 5173, 10.92864, 0
POWR, 71201262, 5.17, 0.04, 1
MAG, 71201293, 240, 26, 446, -73, 56, 20, 0, 0, 0, 1
MAG2, 71201297, 207, -12, 451, -27, 473, -77, 0, 0, 0, 1
BARO, 71201333, -0.1935473, 100952.6, 40.59, -0.2740476
CTUN, 71201344, 578, 0, 313.2384, 0.2927806, 0.2927806, -0.19, 0.00, 0.00, 5, 5
ATT, 71206276, 0.00, -0.77, 0.00, -3.76, 336.88, 336.88, 0.03, 0.03
EKF1, 71206293, -0.77, -3.76, 336.88, 0.3091041, -0.08241269, -0.04854684, -3.251916, 2.079515, -0.2916439, -0.08, -0.10, 0.04
EKF2, 71206300, 38, 7, 1, 0.00, 0.00, 219, -56, 456, 0, 0, 0
EKF3, 71206305, 0.33, -0.03, -0.24, 0.05, -0.02, -0.49, 0, 4, 1, 0.00
EKF4, 71206339, 0.08, 0.01, 0.04, 0.00, 0.03, 0.00, 0.00, 0, 0, 0, 16, 9023, 0
AHR2, 71206350, -0.02, -1.23, 338.38, 5.72, 42.3561975, -71.2991312
POS, 71206378, 42.3561984, -71.2991317, 6.21, 0.2916439
RATE, 71206383, -5.056089, -5.056089, 10, -19.78305, -19.78305, 10, -44.05701, -44.05701, -1, -17.97714, -17.97714, 313.2384
RCIN, 71206398, 1481, 1507, 1534, 1512, 1146, 992, 993, 992, 0, 0, 0, 0, 0, 0
RCOU, 71206466, 1428, 1428, 1428, 1428, 0, 0, 0, 0, 1000, 1600, 0, 0
VIBE, 71206483, 3.462786, 1.973538, 2.055209, 0, 0, 0
IMU, 71206498, -0.005271339, 0.001262265, -0.009438982, -0.2269488, 0.03118016, -9.72445, 0, 0, 39.52077, 1, 1
IMU2, 71206498, 0.0003721661, -0.01197467, -0.004207592, -0.3109331, 0.0923292, -9.503217, 0, 0, 41.25, 1, 1
IMU, 71228450, -0.007535094, 0.0004305972, 0.005659604, 0.3295823, 0.09232517, -9.65982, 0, 0, 39.52077, 1, 1
IMU2, 71228450, -0.007132215, -0.01709754, 0.005420133, 0.2358705, 0.09613177, -9.67622, 0, 0, 41.25, 1, 1
IMU, 71248545, -0.002049774, 0.009417159, 0.01818285, -0.1784876, -0.0529019, -9.752019, 0, 0, 39.52077, 1, 1
IMU2, 71248545, -0.003304462, 0.002668082, 0.02443373, -0.1613525, -0.07050266, -9.922318, 0, 0, 41.25, 1, 1
IMU, 71267113, -0.006679979, 0.003129544, 0.01599019, 0.2538079, -0.09126376, -9.784078, 0, 0, 39.43213, 1, 1
IMU2, 71267113, 0.007688246, -0.006121782, 0.01733782, 0.2008081, -0.172471, -9.788581, 0, 0, 41.25, 1, 1
IMU, 71287095, 0.002620287, 0.007117514, -0.004234176, -0.3352363, 0.06008889, -9.632736, 0, 0, 39.47646, 1, 1
IMU2, 71287095, -0.0006355664, -0.01103471, 0.008561664, -0.07579747, 0.07456756, -9.550541, 0, 0, 41.25, 1, 1
GPS, 71302103, 3, 73060000, 1866, 9, 1.00, 42.3561976, -71.299131, -0.07, 6.39, 0.19, 333.89, -0.12, 1
GPA, 71302108, 1.41, 1.24, 1.64, 0.53
CURR, 71302124, 313, 1219, 639, 5167, 11.10786, 0
POWR, 71302128, 5.16, 0.05, 1
MAG, 71302160, 241, 26, 444, -73, 56, 20, 0, 0, 0, 1
MAG2, 71302164, 219, -4, 438, -27, 473, -77, 0, 0, 0, 1
BARO, 71302236, -0.3643244, 100954.4, 40.59, -0.1237111
CTUN, 71302246, 578, 0, 313.2384, 0.2696894, 0.2696894, -0.36, 0.00, 0.00, 3, 3
ATT, 71309248, 0.00, -0.77, 0.00, -3.73, 336.92, 336.92, 0.05, 0.02
EKF1, 71309266, -0.77, -3.73, 336.92, 0.319493, -0.08951863, -0.03799708, -3.234852, 2.073868, -0.2684053, -0.08, -0.10, 0.04
EKF2, 71309273, 40, 6, 1, 0.00, 0.00, 219, -56, 456, 0, 0, 0
EKF3, 71309278, 0.10, -0.12, 0.05, 0.06, -0.04, -0.64, -1, 5, 3, 0.00
EKF4, 71309302, 0.03, 0.01, 0.06, 0.01, 0.03, 0.02, 0.00, 0, 0, 0, 16, 9023, 0
AHR2, 71309313, -0.04, -1.20, 338.44, 5.55, 42.3561976, -71.299131
POS, 71309341, 42.3561986, -71.2991317, 6.18, 0.2684053
RATE, 71309346, -18.79173, -18.79173, -11, -3.904211, -3.904211, -48, -41.19786, -41.19786, 2, 12.28313, 12.28313, 313.2384
RCIN, 71309361, 1480, 1507, 1534, 1513, 1146, 992, 992, 992, 0, 0, 0, 0, 0, 0
RCOU, 71309501, 1428, 1428, 1428, 1428, 0, 0, 0, 0, 1000, 1600, 0, 0
VIBE, 71309517, 3.408486, 1.641186, 2.634618, 0, 0, 0
IMU, 71309533, -0.001759913, 0.008318356, -0.01020636, 0.07093485, 0.2591006, -9.856225, 0, 0, 39.52077, 1, 1
IMU2, 71309533, -0.007941035, -0.01351637, -0.002473548, -0.07071341, 0.2948773, -9.938529, 0, 0, 41.25, 1, 1
IMU, 71330146, 0.0005673158, -5.153875E-05, 0.005377817, -0.0365097, -0.1963124, -9.804974, 0, 0, 39.47646, 1, 1
IMU2, 71330146, -6.593279E-05, -0.009460207, 0.01203928, 0.1356794, -0.1751407, -9.76819, 0, 0, 41.25, 1, 1
IMU, 71350053, -0.00438336, 0.008960942, 0.003794116, 0.1220561, 0.07942255, -9.74262, 0, 0, 39.47646, 1, 1
IMU2, 71350053, 0.00124689, -0.01449621, 0.002342941, -0.01912821, 0.1499561, -9.687117, 0, 0, 41.25, 1, 1
IMU, 71371725, 0.008039759, 0.005305982, 0.005004063, 0.2038371, -0.100467, -9.561612, 0, 0, 39.52077, 1, 1
IMU2, 71371725, -0.00554033, -0.006119147, 0.008482655, 0.2531118, -0.0437285, -9.644207, 0, 0, 41.25, 1, 1
IMU, 71391749, 0.003350881, 0.00869809, 0.007943286, -0.1121357, 0.2294379, -9.879688, 0, 0, 39.43213, 1, 1
IMU2, 71391749, -0.0008361878, -0.01530571, 0.0135122, -0.2240613, 0.26611, -9.876883, 0, 0, 41.5, 1, 1
CURR, 71407967, 313, 1219, 631, 5190, 11.29367, 0
POWR, 71407971, 5.19, 0.04, 1
MAG, 71408042, 241, 27, 447, -73, 56, 20, 0, 0, 0, 1
MAG2, 71408047, 217, -5, 428, -27, 473, -77, 0, 0, 0, 1
BARO, 71408085, -0.3358615, 100954.1, 40.59, -0.3385748
CTUN, 71408096, 578, 0, 313.2384, 0.242006, 0.242006, -0.33, 0.00, 0.00, 2, 2
ATT, 71413380, 0.00, -0.78, 0.00, -3.75, 336.94, 336.94, 0.05, 0.02
EKF1, 71413398, -0.78, -3.75, 336.94, 0.3650979, -0.1112166, -0.0241519, -3.207735, 2.070254, -0.2407064, -0.08, -0.10, 0.04
EKF2, 71413405, 40, 6, 1, 0.00, 0.00, 219, -56, 456, 0, 0, 0
EKF3, 71413447, 0.10, -0.12, 0.05, 0.06, -0.04, -0.59, -1, 4, 0, 0.00
EKF4, 71413472, 0.03, 0.01, 0.05, 0.00, 0.02, 0.00, 0.00, 0, 0, 0, 16, 9023, 0
AHR2, 71413482, -0.01, -1.28, 338.47, 5.58, 42.3561976, -71.299131
POS, 71413510, 42.3561988, -71.2991318, 6.16, 0.2407064
RATE, 71413515, 12.1435, 12.1435, 6, -25.52999, -25.52999, 1, -38.96968, -38.96968, 4, -21.0701, -21.0701, 313.2384
RCIN, 71413559, 1479, 1508, 1534, 1512, 1146, 992, 993, 992, 0, 0, 0, 0, 0, 0
RCOU, 71413627, 1428, 1428, 1428, 1428, 0, 0, 0, 0, 1000, 1600, 0, 0
VIBE, 71413643, 3.413176, 2.002225, 2.216392, 0, 0, 0
IMU, 71413658, 0.006919458, 0.0007772277, -0.01176605, 0.3127185, -0.1432789, -9.700537, 0, 0, 39.5651, 1, 1
IMU2, 71413658, -0.005809496, -0.01351611, -0.0001615206, 0.2590764, -0.009957498, -9.526153, 0, 0, 41.25, 1, 1
IMU, 71434442, -0.003385284, 0.007289019, 0.00687458, -0.1878214, 0.1457832, -9.651689, 0, 0, 39.5651, 1, 1
IMU2, 71434442, 0.007592761, -0.008386825, 0.007156001, -0.2330197, 0.131042, -9.532302, 0, 0, 41.25, 1, 1
IMU, 71454380, -0.003271962, 0.003787534, 0.0152947, 0.06371582, -0.157035, -9.818308, 0, 0, 39.5651, 1, 1
IMU2, 71454380, 0.000741637, -0.01132666, 0.0200467, 0.03592687, -0.1009579, -9.848572, 0, 0, 41.25, 1, 1
IMU, 71474528, 0.001281758, 0.001092091, 0.01004143, -0.1302737, 0.1226012, -9.835025, 0, 0, 39.5651, 1, 1
IMU2, 71474528, 0.00191219, -0.009992882, 0.01831811, -0.2312244, 0.1275749, -9.901999, 0, 0, 41.25, 1, 1
IMU, 71494378, 0.003336987, -0.003496157, -0.007277041, 0.1051788, -0.1553168, -9.586985, 0, 0, 39.5651, 1, 1
IMU2, 71494378, 0.001760719, -0.01044137, -0.0003374929, 0.3068965, -0.2309934, -9.579497, 0, 0, 41.25, 1, 1
GPS, 71507963, 3, 73060200, 1866, 9, 1.00, 42.3561978, -71.2991309, -0.12, 6.38, 0.06, 333.89, 0.04, 1
GPA, 71507967, 1.41, 1.24, 1.65, 0.42
CURR, 71507983, 313, 1211, 625, 5194, 11.46758, 0
POWR, 71507988, 5.19, 0.04, 1
MAG, 71508019, 242, 30, 447, -73, 56, 20, 0, 0, 0, 1
MAG2, 71508035, 217, -6, 433, -27, 473, -77, 0, 0, 0, 1
BARO, 71508069, -0.2163176, 100952.8, 40.60, -0.6865289
CTUN, 71508080, 578, 0, 313.2384, 0.2153195, 0.2153195, -0.21, 0.00, 0.00, 1, 1
ATT, 71517155, 0.00, -0.77, 0.00, -3.76, 336.97, 336.97, 0.05, 0.02
EKF1, 71517227, -0.77, -3.76, 336.97, 0.3768612, -0.1304616, -0.01247518, -3.178762, 2.065727, -0.2142806, -0.08, -0.11, 0.04
EKF2, 71517234, 39, 6, 1, 0.00, 0.00, 219, -56, 456, 0, 0, 0
EKF3, 71517239, 0.27, -0.13, -0.08, 0.07, -0.06, -0.44, -2, 0, 0, 0.00
EKF4, 71517299, 0.06, 0.02, 0.04, 0.01, 0.00, 0.00, 0.00, 0, 0, 0, 16, 9023, 0
AHR2, 71517310, 0.03, -1.35, 338.50, 5.7, 42.3561978, -71.2991309
POS, 71517338, 42.3561991, -71.2991318, 6.13, 0.2142806
RATE, 71517343, -5.148858, -5.148858, -42, -14.14145, -14.14145, -32, -68.29761, -68.29761, 0, 2.506161, 2.506161, 313.2384
RCIN, 71517359, 1480, 1506, 1535, 1512, 1146, 992, 993, 991, 0, 0, 0, 0, 0, 0
RCOU, 71517426, 1428, 1428, 1428, 1428, 0, 0, 0, 0, 1000, 1600, 0, 0
VIBE, 71517442, 3.318367, 2.406355, 1.985949, 0, 0, 0
IMU, 71517458, -0.001681132, 0.004053704, -0.01145503, -0.2088731, -0.008301644, -9.820171, 0, 0, 39.5651, 1, 1
IMU2, 71517458, -0.003250148, -0.01287322, -0.01073861, -0.2328892, -0.0593767, -9.787904, 0, 0, 41.25, 1, 1
IMU, 71538617, -0.01168314, 0.004407952, -0.003082067, 0.3526169, 0.01428854, -9.704218, 0, 0, 39.47646, 1, 1
IMU2, 71538617, -0.001968973, -0.01529701, -0.003903781, 0.215339, -0.01931176, -9.664331, 0, 0, 41.25, 1, 1
IMU, 71558626, 0.001929252, 0.008456389, 0.006403022, -0.2253311, -0.3470634, -9.545826, 0, 0, 39.52077, 1, 1
IMU2, 71558626, -0.004908802, -0.001947865, 0.01407786, -0.2739563, -0.4007142, -9.520004, 0, 0, 41.25, 1, 1
IMU, 71577014, -0.01178894, 0.008028957, 0.01098943, 0.1752825, 0.1850577, -9.887941, 0, 0, 39.52077, 1, 1
IMU2, 71577014, -0.002570635, -0.01442611, 0.01576507, 0.2014942, 0.08875329, -9.777441, 0, 0, 41.25, 1, 1
IMU, 71597244, -0.00491683, -0.005154315, -0.0002986508, -0.2234469, -0.1079163, -9.668038, 0, 0, 39.5651, 1, 1
IMU2, 71597244, -0.0047177, -0.02360486, 0.01298611, -0.2607895, -0.1890482, -9.704754, 0, 0, 41.25, 1, 1
CURR, 71612218, 313, 1222, 621, 5199, 11.64742, 0
POWR, 71612223, 5.19, 0.04, 1
MAG, 71612254, 241, 26, 446, -73, 56, 20, 0, 0, 0, 1
MAG2, 71612258, 215, -9, 448, -27, 473, -77, 0, 0, 0, 1
BARO, 71612294, -0.2333953, 100953, 40.60, -0.460696
CTUN, 71612305, 578, 0, 313.267, 0.1929672, 0.1929672, -0.23, 0.00, 0.00, 0, 0
ATT, 71618318, 0.00, -0.77, 0.00, -3.76, 336.99, 336.99, 0.05, 0.01
EKF1, 71618336, -0.77, -3.76, 336.99, 0.4024511, -0.1330555, -6.575638E-06, -3.15293, 2.061262, -0.1918304, -0.08, -0.11, 0.04
EKF2, 71618343, 39, 6, 1, 0.00, 0.00, 219, -56, 456, 0, 0, 0
EKF3, 71618425, 0.27, -0.13, -0.08, 0.07, -0.06, -0.44, -1, 4, 1, 0.00
EKF4, 71618449, 0.06, 0.02, 0.04, 0.00, 0.02, 0.01, 0.00, 0, 0, 0, 16, 9023, 0
AHR2, 71618460, 0.00, -1.33, 338.53, 5.68, 42.3561978, -71.2991309
POS, 71618492, 42.3561993, -71.2991319, 6.11, 0.1918304
RATE, 71618498, -23.49132, -23.49132, -2, -12.42468, -12.42468, -4, -26.92873, -26.92873, 2, -7.083702, -7.083702, 313.2598
RCIN, 71618513, 1480, 1507, 1534, 1512, 1147, 992, 992, 992, 0, 0, 0, 0, 0, 0
RCOU, 71618591, 1428, 1428, 1428, 1428, 0, 0, 0, 0, 1000, 1600, 0, 0
VIBE, 71618603, 3.205521, 2.756616, 1.805827, 0, 0, 0
IMU, 71618656, -0.005396911, 0.0004470679, -0.002342585, 0.3339315, 0.2067209, -9.657249, 0, 0, 39.47646, 1, 1
IMU2, 71618656, -0.005933528, -0.008662154, -0.005420374, 0.2791672, 0.3449266, -9.786575, 0, 0, 41.25, 1, 1
IMU, 71639099, -0.00163011, 0.0005957289, -0.01039704, -0.2420853, -0.3145336, -9.700229, 0, 0, 39.34349, 1, 1
IMU2, 71639099, -0.001128337, -0.005336606, -0.0006104783, -0.1161926, -0.3627885, -9.731047, 0, 0, 41.125, 1, 1
IMU, 71659131, 0.004558905, 0.0002579957, -0.000151641, 0.2476005, 0.2778417, -9.738664, 0, 0, 39.43213, 1, 1
IMU2, 71659131, 0.000118871, -0.01160184, -0.001130728, 0.2234252, 0.2556156, -9.836205, 0, 0, 41.375, 1, 1
IMU, 71680278, -0.003336898, -0.001794299, 0.0107367, -0.07213368, -0.360857, -9.642115, 0, 0, 39.47646, 1, 1
IMU2, 71680278, 0.005728892, -0.01277612, 0.02271443, 0.01120925, -0.109017, -9.623077, 0, 0, 41.375, 1, 1
GPS, 71695349, 3, 73060400, 1866, 9, 1.00, 42.3561976, -71.2991309, -0.16, 6.33, 0.08, 333.89, 0.04, 1
GPA, 71695354, 1.41, 1.24, 1.65, 0.31
IMU, 71700254, 0.01339974, 0.00498231, 0.004333952, 0.1133296, 0.2336893, -9.762238, 0, 0, 39.5651, 1, 1
IMU2, 71700254, 0.007088911, -0.006543553, 0.002193712, 0.03397821, 0.4232292, -9.968901, 0, 0, 41.125, 1, 1
CURR, 71715267, 313, 1213, 626, 5190, 11.82678, 0
POWR, 71715271, 5.19, 0.04, 1
MAG, 71715384, 243, 28, 447, -73, 56, 20, 0, 0, 0, 1
MAG2, 71715388, 218, -6, 438, -27, 473, -77, 0, 0, 0, 1
BARO, 71715426, -0.1650845, 100952.3, 40.60, 0.1294159
CTUN, 71715437, 578, 0, 313.2386, 0.1697919, 0.1697919, -0.16, 0.00, 0.00, -1, -1
ATT, 71720453, 0.00, -0.76, 0.00, -3.76, 336.99, 336.99, 0.04, 0.02
EKF1, 71720471, -0.76, -3.76, 336.99, 0.4270826, -0.1550676, 0.01202854, -3.127147, 2.055913, -0.1688552, -0.08, -0.11, 0.04
EKF2, 71720478, 38, 6, 1, 0.00, 0.00, 219, -56, 456, 0, 0, 0
EKF3, 71720482, 0.36, -0.19, -0.05, 0.14, -0.07, -0.35, -3, 2, 0, 0.00
EKF4, 71720507, 0.08, 0.03, 0.03, 0.02, 0.01, 0.00, 0.00, 0, 0, 0, 16, 9023, 0
AHR2, 71720518, 0.00, -1.31, 338.54, 5.75, 42.3561976, -71.2991309
POS, 71720546, 42.3561996, -71.299132, 6.08, 0.1688552
RATE, 71720551, 27.50126, 27.50126, 25, -16.6042, -16.6042, -7, -57.19038, -57.19038, 2, 5.325508, 5.325508, 313.2386
RCIN, 71720571, 1479, 1507, 1534, 1513, 1146, 993, 992, 992, 0, 0, 0, 0, 0, 0
RCOU, 71720639, 1428, 1428, 1428, 1428, 0, 0, 0, 0, 1000, 1600, 0, 0
VIBE, 71720698, 3.009043, 3.280843, 1.581542, 0, 0, 0
IMU, 71720713, -8.44505E-05, 0.001287436, -0.01506703, -0.2469369, -0.3801308, -9.814669, 0, 0, 39.47646, 1, 1
IMU2, 71720713, 0.006546162, -0.01104543, -0.003291616, -0.3467393, -0.348871, -9.839249, 0, 0, 41.125, 1, 1
IMU, 71741766, 0.0104022, -0.003206366, 0.01015915, 0.1395659, 0.3790857, -9.667638, 0, 0, 39.52077, 1, 1
IMU2, 71741766, -0.0003972369, -0.01620374, 0.00590141, 0.167684, 0.3750544, -9.735037, 0, 0, 41.25, 1, 1
IMU, 71761715, -0.003876559, -0.001162912, 0.02806426, -0.0857955, -0.3509603, -9.716863, 0, 0, 39.60942, 1, 1
IMU2, 71761715, 0.006625676, -0.0116182, 0.04128504, -0.06868644, -0.334086, -9.824757, 0, 0, 41.25, 1, 1
IMU, 71781705, 0.007005189, 0.006726892, 0.01707369, 0.3100155, 0.3584845, -9.834549, 0, 0, 39.52077, 1, 1
IMU2, 71781705, 0.003147996, -0.01571267, 0.01360616, 0.2037927, 0.1871169, -9.974352, 0, 0, 41.25, 1, 1
IMU, 71801826, -0.002898037, -0.003590544, -0.02213129, -0.2538701, -0.4006565, -9.70438, 0, 0, 39.43213, 1, 1
IMU2, 71801826, -0.0007347817, -0.01748724, -0.01281684, -0.2055363, -0.2677205, -9.818424, 0, 0, 41.125, 1, 1
CURR, 71815307, 313, 1207, 629, 5173, 12.00161, 0
POWR, 71815312, 5.17, 0.04, 1
MAG, 71815343, 242, 28, 444, -73, 56, 20, 0, 0, 0, 1
MAG2, 71815347, 220, -7, 433, -27, 473, -77, 0, 0, 0, 1
BARO, 71815381, -0.170777, 100952.3, 40.60, 0.4051282
CTUN, 71815392, 578, 0, 313.2386, 0.1506958, 0.1506958, -0.17, 0.00, 0.00, -1, -1
IMU, 71823594, 0.006726948, 0.007466706, -0.03044528, 0.06143791, 0.3956055, -9.759722, 0, 0, 39.47646, 1, 1
IMU2, 71823594, 0.000532279, -0.01354466, -0.0304394, 0.03024315, 0.3858474, -9.7132, 0, 0, 41.25, 1, 1
ATT, 71824540, 0.00, -0.75, 0.00, -3.77, 337.01, 337.01, 0.04, 0.02
EKF1, 71824558, -0.75, -3.77, 337.01, 0.4326993, -0.1666907, 0.01737982, -3.104908, 2.051515, -0.1492695, -0.08, -0.11, 0.04
EKF2, 71824565, 38, 6, 0, 0.00, 0.00, 219, -56, 456, 0, 0, 0
EKF3, 71824570, 0.36, -0.19, -0.05, 0.14, -0.07, -0.33, -1, 1, 3, 0.00
EKF4, 71824634, 0.08, 0.03, 0.03, 0.01, 0.01, 0.02, 0.00, 0, 0, 0, 16, 9023, 0
AHR2, 71824645, 0.01, -1.33, 338.56, 5.74, 42.3561976, -71.2991309
POS, 71824672, 42.3561998, -71.299132, 6.06, 0.1492695
RATE, 71824678, 19.95619, 19.95619, 23, -15.3009, -15.3009, 10, -157.5822, -157.5822, 0, -6.288338, -6.288338, 313.2386
RCIN, 71824702, 1480, 1507, 1534, 1512, 1147, 992, 992, 992, 0, 0, 0, 0, 0, 0
RCOU, 71824769, 1428, 1428, 1428, 1428, 0, 0, 0, 0, 1000, 1600, 0, 0
VIBE, 71824786, 3.062918, 3.645693, 1.472103, 0, 0, 0
IMU, 71842149, -0.008677108, 0.0003847103, -0.01241871, -0.1384947, -0.2673344, -9.768788, 0, 0, 39.47646, 1, 1
IMU2, 71842149, 0.001149236, -0.01395555, -0.004139741, -0.1452956, -0.1985499, -9.804575, 0, 0, 41.25, 1, 1
IMU, 71862235, 0.0009096412, 0.0003985782, 0.02234316, 0.04838902, 0.2649305, -9.692745, 0, 0, 39.5651, 1, 1
IMU2, 71862235, -0.004165655, -0.01643912, 0.01240975, 0.001451666, 0.1550722, -9.760431, 0, 0, 41.25, 1, 1
IMU, 71883511, -0.00109942, -0.004306135, 0.03149991, 0.05348019, -0.3776378, -9.695795, 0, 0, 39.60942, 1, 1
IMU2, 71883511, 0.005073037, -0.01036432, 0.04455908, 0.1468945, -0.1465986, -9.586844, 0, 0, 41.375, 1, 1
GPS, 71898386, 3, 73060600, 1866, 9, 1.00, 42.3561975, -71.2991309, -0.20, 6.30, 0.04, 333.89, -0.03, 1
GPA, 71898390, 1.41, 1.24, 1.65, 0.39
IMU, 71903403, 0.001701571, 0.008618833, 0.006619348, 0.07423261, 0.2774932, -9.816092, 0, 0, 39.52077, 1, 1
IMU2, 71903403, 0.006007755, -0.01208184, 0.02105327, -0.02450451, 0.1348235, -9.742251, 0, 0, 41.125, 1, 1
CURR, 71919667, 313, 1220, 628, 5170, 12.18375, 0
POWR, 71919671, 5.17, 0.05, 1
MAG, 71919703, 242, 28, 446, -73, 56, 20, 0, 0, 0, 1
MAG2, 71919707, 218, -5, 439, -27, 473, -77, 0, 0, 0, 1
BARO, 71919778, -0.1764696, 100952.4, 40.61, 0.3372383
CTUN, 71919788, 578, 0, 313.2386, 0.1318288, 0.1318288, -0.17, 0.00, 0.00, -2, -2
DU32, 71919796, 7, 353784
IMU, 71924857, 0.001637025, -0.005749255, -0.02800339, 0.1355205, -0.1242376, -9.752907, 0, 0, 39.47646, 1, 1
IMU2, 71924857, -0.01650482, -0.01855419, -0.01993056, 0.1436675, 0.04949042, -9.816967, 0, 0, 41.125, 1, 1
ATT, 71928369, 0.00, -0.73, 0.00, -3.78, 337.05, 337.05, 0.04, 0.01
EKF1, 71928387, -0.73, -3.78, 337.05, 0.4624891, -0.1671799, 0.02619576, -3.082245, 2.045344, -0.1305015, -0.08, -0.11, 0.04
EKF2, 71928393, 37, 6, 0, 0.00, 0.00, 219, -56, 456, 0, 0, 0
EKF3, 71928398, 0.39, -0.12, 0.04, 0.21, -0.08, -0.32, -1, 2, 1, 0.00
EKF4, 71928423, 0.08, 0.04, 0.03, 0.01, 0.01, 0.01, 0.00, 0, 0, 0, 16, 9023, 0
AHR2, 71928434, 0.02, -1.35, 338.60, 5.74, 42.3561975, -71.2991309
POS, 71928461, 42.3562, -71.2991321, 6.05, 0.1305015
RATE, 71928467, -17.84082, -17.84082, -30, -25.50308, -25.50308, -35, -165.6205, -165.6205, 6, 0.8986473, 0.8986473, 313.2386
RCIN, 71928482, 1479, 1507, 1534, 1512, 1147, 992, 992, 992, 0, 0, 0, 0, 0, 0
RCOU, 71928550, 1428, 1428, 1428, 1428, 0, 0, 0, 0, 1000, 1600, 0, 0
VIBE, 71928566, 2.958137, 3.729323, 1.59341, 0, 0, 0
IMU, 71944842, 0.002255012, 0.004622438, -0.02387033, -0.05139269, 0.2727819, -9.696802, 0, 0, 39.47646, 1, 1
IMU2, 71944842, -0.0002264715, -0.01249981, -0.02377451, -0.02265846, 0.3762416, -9.778297, 0, 0, 41.25, 1, 1
IMU, 71965981, -0.004338514, 0.003563446, -0.01295345, 0.3019182, 0.07426098, -9.746919, 0, 0, 39.52077, 1, 1
IMU2, 71965981, -0.0101696, -0.01543674, -0.008971317, 0.4188683, 0.3639983, -9.895063, 0, 0, 41.25, 1, 1
IMU, 71986912, -0.006603377, -0.002010773, 0.02912182, -0.271969, -0.2386519, -9.708033, 0, 0, 39.47646, 1, 1
IMU2, 71986912, -0.01005766, -0.01082275, 0.03439886, -0.2344767, -0.2558562, -9.70508, 0, 0, 41.25, 1, 1
IMU, 72006812, -0.003955398, 0.00549445, 0.03875827, 0.3933191, 0.1187728, -9.644545, 0, 0, 39.38781, 1, 1
IMU2, 72006812, 0.002000362, -0.0154683, 0.04556014, 0.3417931, 0.2207323, -9.648416, 0, 0, 41.25, 1, 1
CURR, 72022090, 313, 1210, 626, 5173, 12.36204, 0
POWR, 72022094, 5.17, 0.04, 1
MAG, 72022126, 240, 27, 447, -73, 56, 20, 0, 0, 0, 1
MAG2, 72022166, 217, -7, 440, -27, 473, -77, 0, 0, 0, 1
BARO, 72022202, -0.210625, 100952.7, 40.62, 0.183116
CTUN, 72022213, 578, 0, 313.2386, 0.1138546, 0.1138546, -0.21, 0.00, 0.00, -3, -3
RAD, 72027167, 153, 150, 0, 40, 32, 0, 0
IMU, 72027205, 0.0008714136, -0.0007626112, 0.02629353, -0.2057548, -0.2126605, -9.754525, 0, 0, 39.5651, 1, 1
IMU2, 72027205, 0.008267699, -0.01473681, 0.03834989, -0.3614057, -0.2116196, -9.737032, 0, 0, 41.25, 1, 1
RAD, 72029658, 153, 150, 0, 40, 32, 0, 0
ATT, 72029679, 0.00, -0.75, 0.00, -3.79, 337.12, 337.12, 0.04, 0.01
EKF1, 72029697, -0.75, -3.79, 337.12, 0.4882572, -0.1897223, 0.0381487, -3.061865, 2.036641, -0.1123986, -0.08, -0.11, 0.04
EKF2, 72029703, 37, 6, 0, 0.00, 0.00, 219, -56, 456, 0, 0, 0
EKF3, 72029708, 0.39, -0.12, 0.04, 0.21, -0.08, -0.33, 0, 3, 0, 0.00
EKF4, 72029733, 0.08, 0.04, 0.03, 0.00, 0.02, 0.00, 0.00, 0, 0, 0, 16, 9023, 0
AHR2, 72029805, -0.02, -1.39, 338.68, 5.7, 42.3561975, -71.2991309
POS, 72029837, 42.3562001, -71.2991322, 6.03, 0.1123986
RATE, 72029843, 3.638003, 3.638003, 45, -40.93256, -40.93256, 2, 124.9944, 124.9944, 7, -3.996944, -3.996944, 313.2386
RCIN, 72029858, 1479, 1507, 1534, 1513, 1146, 992, 992, 992, 0, 0, 0, 0, 0, 0
RCOU, 72030037, 1428, 1428, 1428, 1428, 0, 0, 0, 0, 1000, 1600, 0, 0
VIBE, 72030054, 3.193061, 3.901746, 1.71476, 0, 0, 0
UBX1, 72042322, 0, 73, 3, 1, 4590
UBX2, 72042355, 0, -12, 128, 8, 132
IMU, 72047178, 0.005040341, 0.01520331, -0.02864548, 0.2634086, 0.2548799, -9.685144, 0, 0, 39.5651, 1, 1
IMU2, 72047178, -0.002957243, -0.006277834, -0.01470181, 0.09274682, 0.1190545, -9.661956, 0, 0, 41.25, 1, 1
IMU, 72068640, -0.00169353, -0.001234177, -0.03568389, -0.3019639, 0.04723927, -9.753503, 0, 0, 39.47646, 1, 1
IMU2, 72068640, 0.007715142, -0.01303512, -0.03861504, -0.3885608, -0.1744633, -9.580429, 0, 0, 41.25, 1, 1
IMU, 72089777, -0.01052626, 0.0106554, -0.0195852, 0.2707025, 0.08832715, -9.762333, 0, 0, 39.5651, 1, 1
IMU2, 72089777, -0.01674467, -0.008996614, -0.02898008, 0.3285371, 0.2475727, -9.857704, 0, 0, 41.125, 1, 1
RAD, 72093412, 153, 150, 0, 37, 32, 0, 0
RAD, 72095844, 153, 150, 0, 37, 32, 0, 0
GPS, 72103370, 3, 73060800, 1866, 9, 1.00, 42.3561976, -71.2991312, -0.24, 6.33, 0.22, 333.89, -0.03, 1
GPA, 72103375, 1.41, 1.24, 1.65, 0.29
IMU, 72110072, -0.01191374, 0.004029504, 0.03853089, -0.2731929, -0.3288409, -9.670646, 0, 0, 39.52077, 1, 1
IMU2, 72110072, -0.00334882, -0.01328884, 0.03910647, -0.2063727, -0.3008763, -9.762041, 0, 0, 41.125, 1, 1
CURR, 72123362, 313, 1221, 624, 5206, 12.53782, 0
POWR, 72123367, 5.20, 0.05, 1
MAG, 72123507, 243, 25, 447, -73, 56, 20, 0, 0, 0, 1
MAG2, 72123511, 218, -6, 435, -27, 473, -77, 0, 0, 0, 1
BARO, 72123750, -0.005692568, 100950.4, 40.61, 0.07454312
CTUN, 72123761, 579, 0, 313.4171, 0.09406642, 0.09406642, 0.00, 0.00, 0.00, -4, -4
IMU, 72129470, 0.004843798, 0.01245889, 0.03807817, 0.2759637, 0.2451544, -9.697961, 0, 0, 39.47646, 1, 1
IMU2, 72129470, 0.002132766, -0.001065338, 0.04619944, 0.323814, 0.3560339, -9.758003, 0, 0, 41.25, 1, 1
ATT, 72132134, 0.00, -0.75, 0.00, -3.76, 337.15, 337.15, 0.06, 0.02
EKF1, 72132151, -0.75, -3.76, 337.15, 0.4812482, -0.2074642, 0.04490343, -3.040914, 2.024315, -0.09332418, -0.08, -0.11, 0.04
EKF2, 72132158, 34, 6, 0, 0.00, 0.00, 219, -56, 456, 0, 0, 0
EKF3, 72132163, 0.42, 0.06, 0.05, 0.24, -0.06, -0.11, -2, 5, 0, 0.00
EKF4, 72132188, 0.08, 0.05, 0.01, 0.01, 0.03, 0.00, 0.00, 0, 0, 0, 16, 9023, 0
AHR2, 72132234, -0.04, -1.40, 338.72, 5.91, 42.3561976, -71.2991312
POS, 72132261, 42.3562003, -71.2991323, 6.01, 0.09332418
RATE, 72132413, 65.79856, 65.79856, -39, 55.00848, 55.00848, 1, 258.4354, 258.4354, -5, -7.792664, -7.792664, 313.5323
RCIN, 72132428, 1479, 1508, 1534, 1512, 1146, 993, 992, 992, 0, 0, 0, 0, 0, 0
RCOU, 72132496, 1428, 1428, 1428, 1428, 0, 0, 0, 0, 1000, 1600, 0, 0
VIBE, 72132512, 3.216297, 3.993906, 1.581473, 0, 0, 0
IMU, 72150988, -0.007860143, -0.006428619, 0.02522148, -0.329049, -0.2642607, -9.831312, 0, 0, 39.47646, 1, 1
IMU2, 72150988, 0.008631986, -0.01724959, 0.03655662, -0.3596346, -0.1798602, -9.78231, 0, 0, 41.25, 1, 1
IMU, 72171886, 0.003755569, 0.006328366, -0.02806708, 0.4303545, 0.3833191, -9.709846, 0, 0, 39.47646, 1, 1
IMU2, 72171886, 0.002353304, -0.02107706, -0.02508073, 0.3648876, 0.5885331, -9.857793, 0, 0, 41.25, 1, 1
IMU, 72191858, -0.005489562, -0.004437522, -0.03411538, -0.2366703, -0.3003049, -9.67001, 0, 0, 39.43213, 1, 1
IMU2, 72191858, -3.373338E-05, -0.01266575, -0.0316732, 0.01862714, -0.1703598, -9.691378, 0, 0, 41.125, 1, 1
IMU, 72210359, 0.002498647, 0.0088266, -0.02422329, 0.3876426, 0.3856432, -9.815404, 0, 0, 39.52077, 1, 1
IMU2, 72210359, -0.002423391, -0.01523948, -0.03275504, 0.2656688, 0.5583043, -9.88896, 0, 0, 41.125, 1, 1
CURR, 72226820, 313, 1217, 621, 5199, 12.71649, 0
POWR, 72226825, 5.19, 0.04, 1
MAG, 72226856, 241, 28, 449, -73, 56, 20, 0, 0, 0, 1
MAG2, 72226860, 217, -3, 441, -27, 473, -77, 0, 0, 0, 1
BARO, 72226896, -0.1309291, 100951.9, 40.62, 0.1664668
CTUN, 72226907, 578, 0, 313.2795, 0.08456483, 0.08456483, -0.13, 0.00, 0.00, -4, -4
IMU, 72231988, -0.01759356, 0.001642261, 0.01794434, -0.1019064, -0.3485391, -9.714561, 0, 0, 39.5651, 1, 1
IMU2, 72231988, -0.008930933, -0.01155137, 0.02640065, -0.08068117, -0.2063472, -9.706821, 0, 0, 41.25, 1, 1
ATT, 72234060, 0.00, -0.76, 0.00, -3.76, 337.09, 337.09, 0.06, 0.02
EKF1, 72234077, -0.76, -3.76, 337.09, 0.522739, -0.2072991, 0.04561251, -3.020675, 2.004829, -0.08346231, -0.08, -0.11, 0.04
EKF2, 72234084, 34, 6, 0, 0.00, 0.00, 219, -56, 456, 0, 0, 0
EKF3, 72234089, 0.42, 0.06, 0.05, 0.24, -0.06, -0.22, 0, 2, -2, 0.00
EKF4, 72234133, 0.08, 0.05, 0.02, 0.00, 0.01, 0.01, 0.00, 0, 0, 0, 16, 9023, 0
AHR2, 72234144, -0.09, -1.44, 338.67, 5.78, 42.3561976, -71.2991312
POS, 72234172, 42.3562005, -71.2991326, 6, 0.08346231
RATE, 72234177, -70.79176, -70.79176, -11, -6.766782, -6.766782, -7, 116.9141, 116.9141, -2, -7.533169, -7.533169, 313.265
RCIN, 72234192, 1479, 1507, 1534, 1512, 1146, 993, 992, 992, 0, 0, 0, 0, 0, 0
RCOU, 72234327, 1428, 1428, 1428, 1428, 0, 0, 0, 0, 1000, 1600, 0, 0
VIBE, 72234339, 3.451777, 3.941638, 2.203398, 0, 0, 0
IMU, 72251935, 0.005210727, 0.002130268, 0.04849906, 0.09583215, 0.2744196, -9.729111, 0, 0, 39.52077, 1, 1
IMU2, 72251935, 0.004856433, -0.008625094, 0.04293917, 0.01037982, 0.2529955, -9.808307, 0, 0, 41.375, 1, 1
IMU, 72273341, -0.008352143, 0.008777889, 0.01108884, 0.05793305, -0.3173284, -9.67124, 0, 0, 39.52077, 1, 1
IMU2, 72273341, -0.0110303, -0.007502927, 0.02580653, 0.2251102, -0.0523779, -9.630548, 0, 0, 41.375, 1, 1
IMU, 72293409, 0.01482331, 0.01438169, -0.01935778, -0.03315867, 0.2415454, -9.713524, 0, 0, 39.52077, 1, 1
IMU2, 72293409, 0.001346207, -0.009670046, -0.01553367, -0.151848, 0.2331261, -9.816057, 0, 0, 41.375, 1, 1
GPS, 72309620, 3, 73061000, 1866, 9, 1.00, 42.3561976, -71.2991316, -0.26, 6.35, 0.12, 333.89, -0.13, 1
GPA, 72309624, 1.41, 1.24, 1.65, 0.39
IMU, 72314396, -0.004569762, -0.003741944, -0.04052218, 0.1867902, 0.09240302, -9.697437, 0, 0, 39.47646, 1, 1
IMU2, 72314396, -0.005856501, -0.02075193, -0.04219379, 0.2966967, 0.3069858, -9.726452, 0, 0, 41.25, 1, 1
CURR, 72329321, 313, 1218, 630, 5193, 12.89593, 0
POWR, 72329362, 5.19, 0.05, 1
MAG, 72329383, 239, 27, 446, -73, 56, 20, 0, 0, 0, 1
MAG2, 72329388, 216, -8, 441, -27, 473, -77, 0, 0, 0, 1
BARO, 72329460, -0.2447804, 100953.1, 40.62, 0.2857467
CTUN, 72329470, 578, 0, 313.2775, 0.0696156, 0.0696156, -0.24, 0.00, 0.00, -5, -5
IMU, 72335684, 0.007329842, -0.00660336, 0.003211563, -0.3369309, -0.102378, -9.770468, 0, 0, 39.43213, 1, 1
IMU2, 72335684, 0.007924337, -0.02024474, 0.0001332496, -0.3331259, -0.1470113, -9.744827, 0, 0, 41.25, 1, 1
ATT, 72338143, 0.00, -0.77, 0.00, -3.77, 337.09, 337.09, 0.06, 0.01
EKF1, 72338161, -0.77, -3.77, 337.09, 0.5286161, -0.23628, 0.05630577, -2.998535, 1.984897, -0.06813232, -0.08, -0.12, 0.04
EKF2, 72338171, 35, 6, 0, 0.00, 0.00, 219, -56, 456, 0, 0, 0
EKF3, 72338176, 0.39, -0.11, 0.17, 0.28, -0.04, -0.32, 1, 3, 1, 0.00
EKF4, 72338214, 0.08, 0.05, 0.03, 0.00, 0.01, 0.00, 0.00, 0, 0, 0, 16, 9023, 0
AHR2, 72338224, -0.12, -1.48, 338.69, 5.67, 42.3561976, -71.2991316
POS, 72338252, 42.3562007, -71.2991328, 5.98, 0.06813232
RATE, 72338257, 17.83422, 17.83422, 58, -70.81313, -70.81313, -2, 17.00574, 17.00574, -3, -1.488686, -1.488686, 313.2637
RCIN, 72338273, 1480, 1506, 1534, 1512, 1147, 992, 992, 992, 0, 0, 0, 0, 0, 0
RCOU, 72338380, 1428, 1428, 1428, 1428, 0, 0, 0, 0, 1000, 1600, 0, 0
VIBE, 72338397, 3.743191, 3.877877, 2.503026, 0, 0, 0
IMU, 72356277, -0.01070319, 0.006282266, 0.02871991, 0.4370856, 0.2114318, -9.750387, 0, 0, 39.5651, 1, 1
IMU2, 72356277, -0.001504667, -0.01270522, 0.02829233, 0.4607726, 0.1852049, -9.808737, 0, 0, 41.25, 1, 1
IMU, 72377798, -0.002763579, 0.005599488, 0.04641904, -0.2703238, -0.2510391, -9.712919, 0, 0, 39.47646, 1, 1
IMU2, 72377798, -0.003936437, -0.0107717, 0.04757117, -0.3851824, -0.2690508, -9.553808, 0, 0, 41.25, 1, 1
IMU, 72399140, -0.006687398, 0.006717923, 0.0005622664, 0.3233868, 0.2750371, -9.830178, 0, 0, 39.47646, 1, 1
IMU2, 72399140, -0.01463002, -0.01423281, 0.01620501, 0.5639054, 0.5259345, -9.88303, 0, 0, 41.25, 1, 1
IMU, 72419184, 0.001209014, 0.006372923, -0.02227222, -0.2804183, -0.2097568, -9.779981, 0, 0, 39.52077, 1, 1
IMU2, 72419184, 0.003182204, -0.02131993, -0.0251876, -0.301375, -0.06836227, -9.778961, 0, 0, 41.25, 1, 1
CURR, 72432645, 313, 1212, 616, 5191, 13.07288, 0
POWR, 72432650, 5.19, 0.04, 1
MAG, 72432727, 239, 27, 449, -73, 56, 20, 0, 0, 0, 1
MAG2, 72432731, 220, -5, 438, -27, 473, -77, 0, 0, 0, 1
BARO, 72432767, -0.1821622, 100952.4, 40.62, 0.03531755
CTUN, 72432778, 578, 0, 313.2386, 0.05025871, 0.05025871, -0.18, 0.00, 0.00, -6, -6
IMU, 72439083, -0.0090077, 0.007121637, -0.04545865, 0.2486156, 0.3657362, -9.698771, 0, 0, 39.52077, 1, 1
IMU2, 72439083, -0.003118286, -0.01617161, -0.037508, -0.07974306, 0.4489459, -9.817042, 0, 0, 41.25, 1, 1
ATT, 72442607, 0.00, -0.78, 0.00, -3.76, 337.11, 337.11, 0.06, 0.01
EKF1, 72442624, -0.78, -3.76, 337.11, 0.5274996, -0.2427323, 0.06063616, -2.975973, 1.967563, -0.04900325, -0.08, -0.12, 0.04
EKF2, 72442634, 35, 6, 0, 0.00, 0.00, 219, -56, 456, 0, 0, 0
EKF3, 72442639, 0.39, -0.11, 0.17, 0.28, -0.04, -0.24, 0, 2, 0, 0.00
EKF4, 72442664, 0.08, 0.05, 0.02, 0.00, 0.01, 0.00, 0.00, 0, 0, 0, 16, 9023, 0
AHR2, 72442674, -0.08, -1.49, 338.71, 5.73, 42.3561976, -71.2991316
POS, 72442702, 42.3562009, -71.299133, 5.96, 0.04900325
RATE, 72442707, 1.961444, 1.961444, -41, -17.28763, -17.28763, 8, -198.977, -198.977, -3, -4.051781, -4.051781, 313.2386
RCIN, 72442777, 1480, 1507, 1534, 1512, 1146, 992, 993, 992, 0, 0, 0, 0, 0, 0
RCOU, 72442845, 1428, 1428, 1428, 1428, 0, 0, 0, 0, 1000, 1600, 0, 0
VIBE, 72442861, 3.672787, 3.95629, 2.439583, 0, 0, 0
IMU, 72460541, 0.001290773, -0.000679118, 0.008949633, -0.2733893, -0.3294313, -9.701929, 0, 0, 39.5651, 1, 1
IMU2, 72460541, 0.003151338, -0.01057279, 0.0002669295, -0.2709952, -0.5115609, -9.580501, 0, 0, 41.125, 1, 1
IMU, 72479046, -0.01344058, 0.006297761, 0.02532144, 0.3218219, 0.2316971, -9.783258, 0, 0, 39.5651, 1, 1
IMU2, 72479046, 0.002987311, -0.009820407, 0.03310348, 0.3245226, 0.1840417, -9.777891, 0, 0, 41.125, 1, 1
GPS, 72495111, 3, 73061200, 1866, 9, 1.00, 42.3561975, -71.2991318, -0.29, 6.35, 0.06, 333.89, -0.12, 1
GPA, 72495115, 1.41, 1.24, 1.65, 0.34
IMU, 72499994, -0.005546938, 0.005234405, 0.04286231, -0.1847587, -0.3488672, -9.712921, 0, 0, 39.47646, 1, 1
IMU2, 72499994, 0.001429298, -0.01001209, 0.04607763, -0.09202115, -0.2449066, -9.71254, 0, 0, 41.25, 1, 1
IMU, 72519889, -0.005637877, 0.01008609, -0.0004164323, 0.1586955, 0.2937785, -9.735609, 0, 0, 39.60942, 1, 1
IMU2, 72519889, 0.004858385, -0.005909457, 0.01454504, -0.1147263, 0.5031496, -9.74717, 0, 0, 41.125, 1, 1
CURR, 72536567, 313, 1217, 628, 5193, 13.25419, 0
POWR, 72536572, 5.19, 0.04, 1
MAG, 72536603, 243, 27, 444, -73, 56, 20, 0, 0, 0, 1
MAG2, 72536607, 217, -6, 439, -27, 473, -77, 0, 0, 0, 1
BARO, 72536645, -0.2220102, 100952.9, 40.62, -0.3418225
CTUN, 72536656, 578, 0, 313.2386, 0.0339307, 0.0339307, -0.22, 0.00, 0.00, -6, -6
IMU, 72541209, -0.007624779, 0.001079283, -0.02010221, 0.1332317, -0.08573091, -9.708767, 0, 0, 39.5651, 1, 1
IMU2, 72541209, -0.0007412422, -0.01109381, -0.0251161, -0.06454843, 0.1168177, -9.817128, 0, 0, 41.25, 1, 1
ATT, 72543611, 0.00, -0.76, 0.00, -3.74, 337.17, 337.17, 0.05, 0.01
EKF1, 72543668, -0.76, -3.74, 337.17, 0.5546811, -0.2443244, 0.06304725, -2.956163, 1.950433, -0.03263401, -0.08, -0.12, 0.04
EKF2, 72543675, 34, 6, 0, 0.00, 0.00, 219, -56, 456, 0, 0, 0
EKF3, 72543680, 0.51, -0.16, 0.17, 0.33, -0.06, -0.26, -3, 2, 3, 0.00
EKF4, 72543705, 0.11, 0.06, 0.02, 0.02, 0.01, 0.02, 0.00, 0, 0, 0, 16, 9023, 0
AHR2, 72543716, -0.04, -1.48, 338.79, 5.69, 42.3561975, -71.2991318
POS, 72543744, 42.3562011, -71.2991332, 5.95, 0.03263401
RATE, 72543749, 1.807329, 1.807329, -33, -21.93657, -21.93657, 1, -147.0697, -147.0697, 5, 3.468037, 3.468037, 313.2386
RCIN, 72543764, 1480, 1507, 1534, 1512, 1147, 992, 992, 992, 0, 0, 0, 0, 0, 0
RCOU, 72543863, 1428, 1428, 1428, 1428, 0, 0, 0, 0, 1000, 1600, 0, 0
VIBE, 72543879, 3.565184, 3.736936, 2.392968, 0, 0, 0
IMU, 72561123, -0.0112495, 0.003935658, -0.02598377, -0.02717583, 0.2142821, -9.660087, 0, 0, 39.5651, 1, 1
IMU2, 72561123, -0.01007621, -0.01829059, -0.0243973, -0.3479888, 0.01216508, -9.679153, 0, 0, 41.25, 1, 1
IMU, 72582158, -0.006350892, -0.004119273, -0.008724787, 0.08845377, -0.2953997, -9.719496, 0, 0, 39.5651, 1, 1
IMU2, 72582158, -0.004969988, -0.02010626, -0.01210225, 0.1102888, -0.2973411, -9.759783, 0, 0, 41.125, 1, 1
IMU, 72602187, -0.005221123, 0.002243821, -0.0007515986, 0.04260679, 0.08626337, -9.725338, 0, 0, 39.5651, 1, 1
IMU2, 72602187, 0.0004786468, -0.009755646, 0.01362899, -0.1615575, 0.003320341, -9.820016, 0, 0, 41.125, 1, 1
IMU, 72623280, 0.01068961, 0.002416797, 0.00949998, 0.2884091, -0.02530495, -9.603428, 0, 0, 39.47646, 1, 1
IMU2, 72623280, -0.004202556, -0.01072567, 0.01711939, 0.1455514, 0.01617916, -9.772653, 0, 0, 41.25, 1, 1
CURR, 72638247, 313, 1218, 620, 5173, 13.4296, 0
POWR, 72638251, 5.17, 0.04, 1
MAG, 72638298, 237, 26, 445, -73, 56, 20, 0, 0, 0, 1
MAG2, 72638302, 218, -6, 438, -27, 473, -77, 0, 0, 0, 1
BARO, 72638336, -0.09677366, 100951.5, 40.63, -0.3049514
CTUN, 72638346, 578, 0, 313.2386, 0.01611432, 0.01611432, -0.09, 0.00, 0.00, -7, -7
IMU, 72644267, -0.001219081, 0.0005480255, 0.002148697, -0.3659894, -0.04760268, -9.82045, 0, 0, 39.47646, 1, 1
IMU2, 72644267, 0.003850666, -0.01604412, 0.01511534, -0.5034711, -0.06941339, -9.87268, 0, 0, 41.25, 1, 1
ATT, 72646777, 0.00, -0.78, 0.00, -3.74, 337.17, 337.17, 0.05, 0.01
EKF1, 72646799, -0.78, -3.74, 337.17, 0.5531042, -0.2739345, 0.07707916, -2.938583, 1.933209, -0.01520404, -0.08, -0.12, 0.04
EKF2, 72646806, 34, 6, 0, 0.00, 0.00, 219, -56, 456, 0, 0, 0
EKF3, 72646811, 0.51, -0.16, 0.17, 0.33, -0.06, -0.12, 2, 3, 2, 0.00
EKF4, 72646866, 0.11, 0.06, 0.01, 0.01, 0.02, 0.01, 0.00, 0, 0, 0, 16, 9023, 0
AHR2, 72646877, -0.06, -1.48, 338.79, 5.82, 42.3561975, -71.2991318
POS, 72646940, 42.3562013, -71.2991334, 5.93, 0.01520404
RATE, 72646946, -20.37181, -20.37181, 45, -17.25428, -17.25428, -16, 42.20585, 42.20585, 0, -2.202988, -2.202988, 313.2386
RCIN, 72646961, 1480, 1507, 1534, 1512, 1146, 992, 993, 992, 0, 0, 0, 0, 0, 0
RCOU, 72647091, 1428, 1428, 1428, 1428, 0, 0, 0, 0, 1000, 1600, 0, 0
VIBE, 72647107, 3.375593, 3.376859, 2.743257, 0, 0, 0
IMU, 72665801, -0.0004214502, 0.007386516, 0.003083456, 0.2141906, 0.07433085, -9.699127, 0, 0, 39.5651, 1, 1
IMU2, 72665801, 0.006144388, -0.01070779, -0.0051506, 0.2895381, 0.1273654, -9.748118, 0, 0, 41.25, 1, 1
IMU, 72685872, 0.01630022, 0.00071208, -0.0123558, -0.3311961, -0.02812964, -9.755655, 0, 0, 39.43213, 1, 1
IMU2, 72685872, 0.01187561, -0.00464344, 4.987974E-05, -0.140633, 0.164944, -9.796894, 0, 0, 41.25, 1, 1
GPS, 72699242, 3, 73061400, 1866, 9, 1.00, 42.3561973, -71.2991321, -0.33, 6.30, 0.12, 333.89, -0.01, 1
GPA, 72699246, 1.41, 1.23, 1.64, 0.32
IMU, 72705626, 0.004645643, 0.001640877, -0.00177898, 0.2012915, 0.05723479, -9.626179, 0, 0, 39.60942, 1, 1
IMU2, 72705626, -0.0007593534, -0.0115768, -0.004839606, 0.2379016, 0.1813255, -9.721498, 0, 0, 41.25, 1, 1
MODE, 72709472, Guided, 4
IMU, 72725657, -0.001326152, 0.003233815, 0.003152201, -0.2285843, -0.05683932, -9.834008, 0, 0, 39.60942, 1, 1
IMU2, 72725657, -0.003809017, -0.01893354, 0.01729728, -0.3092114, 0.02378945, -9.743025, 0, 0, 41.25, 1, 1
CURR, 72739292, 212, 1220, 610, 5196, 13.60094, 0
POWR, 72739297, 5.19, 0.04, 1
MAG, 72739318, 240, 27, 446, -73, 56, 20, 0, 0, 0, 1
MAG2, 72739456, 216, -6, 439, -27, 473, -77, 0, 0, 0, 1
BARO, 72739819, -0.1081588, 100951.6, 40.63, 0.04463718
CTUN, 72739829, 578, 0, 212.6015, -0.06958752, 0.0041444, -0.10, 0.00, 0.00, -7, -8
IMU, 72744830, -0.001064705, 0.000351169, 0.007084699, 0.3839808, -0.02990495, -9.596601, 0, 0, 39.52077, 1, 1
IMU2, 72744830, -0.003515021, -0.004846434, 0.01219821, 0.3549359, 0.1369614, -9.602514, 0, 0, 41.25, 1, 1
ATT, 72747021, -0.74, -0.75, -3.75, -3.71, 337.17, 337.20, 0.05, 0.01
EKF1, 72747047, -0.75, -3.71, 337.20, 0.5535901, -0.2702947, 0.08272789, -2.925471, 1.915495, -0.003134455, -0.08, -0.12, 0.04
EKF2, 72747054, 32, 6, 0, 0.00, 0.00, 219, -56, 456, 0, 0, 0
EKF3, 72747059, 0.58, -0.13, 0.07, 0.40, -0.07, -0.11, 0, 3, 1, 0.00
EKF4, 72747146, 0.12, 0.08, 0.01, 0.00, 0.02, 0.00, 0.00, 0, 0, 0, 16, 9023, 0
AHR2, 72747157, -0.03, -1.47, 338.83, 5.81, 42.3561973, -71.2991321
POS, 72747220, 42.3562014, -71.2991337, 5.92, 0.003134455
RATE, 72747225, 9.021366, -1.677397, 6, -44.56126, 0.1519544, -4, -18.28098, 61.21752, -21, 14.64802, -8.933926, 216.8264
RCIN, 72747243, 1479, 1507, 1534, 1512, 1146, 992, 993, 992, 0, 0, 0, 0, 0, 0
RCOU, 72747316, 1270, 1291, 1290, 1275, 0, 0, 0, 0, 1000, 1600, 0, 0
NTUN, 72747334, -236.2755, 164.6025, -292.5471, 191.5495, 56.37517, -27.09602, 55.35901, -27.02947, 54.52477, -36.41947
VIBE, 72747487, 3.2902, 3.09282, 2.798775, 0, 0, 0
IMU, 72764484, 0.001879366, -0.001750309, 0.003879553, -0.1291931, 0.06199233, -9.689951, 0, 0, 39.43213, 1, 1
IMU2, 72764484, -0.003860601, -0.01211071, 0.005964173, -0.2841437, 0.02964187, -9.841333, 0, 0, 41.25, 1, 1
IMU, 72784518, 0.003438686, 0.007571726, -0.01692652, 0.3702926, -0.2261493, -9.700452, 0, 0, 39.52077, 1, 1
IMU2, 72784518, 0.006833137, -0.005254924, -0.006153173, 0.4274392, -0.09623549, -9.661567, 0, 0, 41.25, 1, 1
IMU, 72804508, 0.001323372, -0.001854212, -0.00809833, -0.02977998, 0.05431856, -9.71401, 0, 0, 39.52077, 1, 1
IMU2, 72804508, 0.0156201, -0.02634006, -0.01250494, -0.197779, 0.05876737, -9.805063, 0, 0, 41.25, 1, 1
IMU, 72825734, -0.00828469, 0.005234261, 0.006059436, 0.154009, -0.09276966, -9.560531, 0, 0, 39.47646, 1, 1
IMU2, 72825734, 0.008361134, -0.01350869, 0.008934367, 0.1085871, 0.08783732, -9.54317, 0, 0, 41.25, 1, 1
CURR, 72840767, 246, 1217, 399, 5193, 13.71364, 0
POWR, 72840772, 5.19, 0.04, 1
MAG, 72840792, 238, 28, 448, -73, 56, 20, 0, 0, 0, 1
MAG2, 72840797, 218, -5, 439, -27, 473, -77, 0, 0, 0, 1
BARO, 72840837, -0.1309291, 100951.9, 40.63, 0.2961453
CTUN, 72840848, 578, 0, 246.2019, -0.05302152, -0.009211007, -0.13, 0.00, 0.00, -4, -9
IMU, 72847872, 0.005868373, 0.005421475, 0.02451662, -0.1794018, 0.03182714, -9.7605, 0, 0, 39.52077, 1, 1
IMU2, 72847872, 0.005304219, -0.007090439, 0.0270873, -0.4726829, -0.01359711, -9.926149, 0, 0, 41.25, 1, 1
ATT, 72849990, -0.15, -0.72, -2.90, -3.70, 337.17, 337.21, 0.05, 0.01
EKF1, 72850015, -0.72, -3.70, 337.21, 0.5591798, -0.2825789, 0.08602393, -2.913305, 1.895651, 0.01040535, -0.08, -0.12, 0.04
EKF2, 72850022, 32, 6, 0, 0.00, 0.00, 219, -56, 456, 0, 0, 0
EKF3, 72850074, 0.58, -0.13, 0.07, 0.40, -0.07, -0.12, 1, 1, 0, 0.00
EKF4, 72850099, 0.12, 0.08, 0.01, 0.01, 0.01, 0.00, 0.00, 0, 0, 0, 16, 9023, 0
AHR2, 72850109, 0.00, -1.48, 338.85, 5.78, 42.3561973, -71.2991321
POS, 72850137, 42.3562015, -71.2991339, 5.9, -0.01040535
RATE, 72850143, 640.3861, 71.45118, 149, 899.1217, -11.67741, 250, -17.86454, 146.1774, -32, 30.56473, 13.57622, 247.8648
RCIN, 72850158, 1480, 1507, 1535, 1512, 1146, 992, 993, 991, 0, 0, 0, 0, 0, 0
RCOU, 72850226, 1334, 1347, 1359, 1324, 0, 0, 0, 0, 1000, 1600, 0, 0
NTUN, 72850244, -236.4466, 164.6852, -291.3305, 189.5651, 55.06007, -25.07376, 55.91798, -28.25788, 37.74588, -12.23336
VIBE, 72850248, 3.707982, 2.682302, 2.776418, 0, 0, 0
IMU, 72868625, -0.004011361, 0.01743864, 0.01591937, -0.07643539, -0.03329589, -9.860595, 0, 0, 39.47646, 1, 1
IMU2, 72868625, 0.002463081, -0.01096045, 0.02408857, -0.1874572, -0.3004635, -9.822734, 0, 0, 41.25, 1, 1
IMU, 72888664, 0.007454928, -0.0004564835, -0.01527858, 0.5201598, 0.0001076628, -9.502167, 0, 0, 39.5651, 1, 1
IMU2, 72888664, -0.0008560186, -0.01289448, -0.005496921, 0.2265289, 0.1328857, -9.645853, 0, 0, 41.25, 1, 1
GPS, 72903827, 3, 73061600, 1866, 9, 1.00, 42.356197, -71.2991324, -0.35, 6.27, 0.11, 333.89, 0.07, 1
GPA, 72903832, 1.41, 1.23, 1.64, 0.42
IMU, 72910783, -0.0121187, 0.001035691, -0.02024071, -0.6318668, -0.02124172, -9.907012, 0, 0, 39.60942, 1, 1
IMU2, 72910783, -0.008615443, -0.01841908, -0.01175859, -1.031217, -0.0157292, -10.03564, 0, 0, 41.25, 1, 1
IMU, 72931889, -0.00811251, 0.0228859, -0.01321584, 0.3834545, -0.04058442, -9.673083, 0, 0, 39.43213, 1, 1
IMU2, 72931889, 0.006346645, 0.0004365663, -0.01161717, 0.6456414, 0.1749759, -9.536958, 0, 0, 41.25, 1, 1
CURR, 72945398, 270, 1221, 462, 5190, 13.84812, 0
POWR, 72945402, 5.19, 0.04, 1
MAG, 72945444, 242, 26, 447, -73, 56, 20, 0, 0, 0, 1
MAG2, 72945448, 217, -3, 441, -27, 473, -77, 0, 0, 0, 1
BARO, 72945533, -0.1138514, 100951.7, 40.64, 0.2779021
CTUN, 72945543, 578, 0, 270.9028, -0.01564751, -0.02402716, -0.11, 0.00, 0.00, 0, -9
DU32, 72945551, 7, 353784
IMU, 72952292, -0.006764007, 0.003063714, 0.02242681, -0.4749363, 0.04771644, -9.85848, 0, 0, 39.60942, 1, 1
IMU2, 72952292, 0.00423748, -0.02052508, 0.02787061, -0.9990743, 0.02690914, -9.810892, 0, 0, 41.375, 1, 1
ATT, 72954397, 0.15, -0.73, -2.55, -3.66, 337.17, 337.22, 0.04, 0.01
EKF1, 72954415, -0.73, -3.66, 337.22, 0.5504579, -0.2982608, 0.09379208, -2.903764, 1.875953, 0.02519039, -0.08, -0.13, 0.04
EKF2, 72954422, 31, 6, 0, 0.00, 0.00, 219, -56, 456, 0, 0, 0
EKF3, 72954427, 0.63, -0.21, 0.00, 0.47, -0.08, -0.09, -2, 3, 1, 0.00
EKF4, 72954451, 0.13, 0.09, 0.00, 0.01, 0.02, 0.00, 0.00, 0, 0, 0, 16, 9023, 0
AHR2, 72954462, -0.01, -1.46, 338.87, 5.8, 42.356197, -71.2991324
POS, 72954524, 42.3562016, -71.2991341, 5.89, -0.02519039
RATE, 72954529, 989.5654, 11.15442, 228, 1246.972, -5.74434, 209, -21.41044, 163.1543, -29, 60.34594, 7.23114, 273.9872
RCIN, 72954545, 1480, 1507, 1534, 1512, 1147, 992, 992, 992, 0, 0, 0, 0, 0, 0
RCOU, 72954781, 1351, 1385, 1401, 1327, 0, 0, 0, 0, 1000, 1600, 0, 0
NTUN, 72954802, -236.7964, 164.8486, -290.3763, 187.5953, 53.68738, -22.95308, 55.04579, -29.82608, 42.03838, -11.68809
VIBE, 72954806, 5.249019, 2.700275, 2.968972, 0, 0, 0
IMU, 72973371, 0.002335641, 0.01494855, 0.02073122, -0.5973328, -0.2443185, -9.79214, 0, 0, 39.47646, 1, 1
IMU2, 72973371, 0.002482214, -0.005230462, 0.03190823, -0.1295118, -0.3215166, -9.764859, 0, 0, 41.25, 1, 1
IMU, 72994343, -0.006450955, 0.009287717, 0.003635844, 0.8716907, 0.07812472, -9.597784, 0, 0, 39.5651, 1, 1
IMU2, 72994343, -0.001540035, -0.004509292, 0.016289, 0.9721699, 0.237303, -9.498233, 0, 0, 41.375, 1, 1
IMU, 73014375, -0.02553341, 0.01317879, -0.00774179, -0.6756601, -0.04131949, -9.900071, 0, 0, 39.52077, 1, 1
IMU2, 73014375, -0.00712825, -0.01974553, -0.008698364, -0.8225135, -0.02365867, -9.836025, 0, 0, 41.25, 1, 1
IMU, 73033000, -0.01121011, 0.01419468, -0.02973055, 0.1921596, -0.02230265, -9.717639, 0, 0, 39.47646, 1, 1
IMU2, 73033000, -0.0006223848, -0.01675039, -0.03053171, 0.4947195, 0.01436835, -9.714422, 0, 0, 41.375, 1, 1
CURR, 73048147, 306, 1215, 564, 5185, 14.00911, 0
POWR, 73048151, 5.18, 0.04, 1
MAG, 73048191, 240, 29, 446, -73, 56, 20, 0, 0, 0, 1
MAG2, 73048195, 217, -5, 440, -27, 473, -77, 0, 0, 0, 1
BARO, 73048233, -0.1764696, 100952.4, 40.64, 0.08111676
CTUN, 73048244, 556, 0, 306.4542, 0.0432305, -0.03850983, -0.17, 0.00, 0.00, 8, -10
IMU, 73056000, -0.007065573, -0.005160951, -0.006782969, -0.01199925, 0.03198912, -9.622085, 0, 0, 39.52077, 1, 1
IMU2, 73056000, -0.004165268, -0.0171915, -0.002380844, -0.2680985, -0.00497697, -9.614921, 0, 0, 41.125, 1, 1
ATT, 73056938, 0.39, -0.75, -2.37, -3.64, 337.17, 337.21, 0.04, 0.01
EKF1, 73056956, -0.75, -3.64, 337.21, 0.5482492, -0.2980392, 0.1015004, -2.897864, 1.857325, 0.03994412, -0.08, -0.13, 0.04
EKF2, 73056963, 31, 6, 0, 0.00, 0.00, 219, -56, 456, 0, 0, 0
EKF3, 73056968, 0.63, -0.21, 0.00, 0.47, -0.08, -0.14, -1, 0, 1, 0.00
EKF4, 73056992, 0.13, 0.09, 0.01, 0.00, 0.00, 0.01, 0.00, 0, 0, 0, 16, 9023, 0
AHR2, 73057046, -0.02, -1.46, 338.87, 5.74, 42.356197, -71.2991324
POS, 73057074, 42.3562016, -71.2991344, 5.88, -0.03994412
RATE, 73057079, 1280.085, -42.33379, 402, 1428.943, -69.8884, 335, -13.88846, 20.1505, 8, 108.649, -2.499771, 310.7136
RCIN, 73057103, 1480, 1507, 1509, 1514, 1146, 992, 992, 992, 0, 0, 0, 0, 0, 0
RCOU, 73057265, 1414, 1426, 1457, 1371, 0, 0, 0, 0, 1000, 1600, 0, 0
NTUN, 73057283, -237.4406, 165.1662, -289.7864, 185.7325, 52.46112, -20.78659, 54.82492, -29.80392, 38.1451, -5.094412
VIBE, 73057287, 5.983144, 2.361327, 3.171456, 0, 0, 0
