FMT, 128, 89, FMT, BBnNZ, Type,Length,Name,Format,Columns
FMT, 129, 31, PARM, QNf, TimeUS,Name,Value
FMT, 130, 50, GPS, QBIHBcLLeeEefB, TimeUS,Status,GMS,GWk,NSats,HDop,Lat,Lng,RAlt,Alt,Spd,GCrs,VZ,U
FMT, 131, 50, GPS2, QBIHBcLLeeEefB, TimeUS,Status,GMS,GWk,NSats,HDop,Lat,Lng,RAlt,Alt,Spd,GCrs,VZ,U
FMT, 195, 19, GPA, QCCCC, TimeUS,VDop,HAcc,VAcc,SAcc
FMT, 196, 19, GPA2, QCCCC, TimeUS,VDop,HAcc,VAcc,SAcc
FMT, 132, 49, IMU, QffffffIIfBB, TimeUS,GyrX,GyrY,GyrZ,AccX,AccY,AccZ,ErrG,ErrA,Temp,GyHlt,AcHlt
FMT, 133, 75, MSG, QZ, TimeUS,Message
FMT, 134, 39, RCIN, Qhhhhhhhhhhhhhh, TimeUS,C1,C2,C3,C4,C5,C6,C7,C8,C9,C10,C11,C12,C13,C14
FMT, 135, 35, RCOU, Qhhhhhhhhhhhh, TimeUS,Ch1,Ch2,Ch3,Ch4,Ch5,Ch6,Ch7,Ch8,Ch9,Ch10,Ch11,Ch12
FMT, 136, 15, RSSI, Qf, TimeUS,RXRSSI
FMT, 138, 25, BARO, Qffcf, TimeUS,Alt,Press,Temp,CRt
FMT, 139, 17, POWR, QCCH, TimeUS,Vcc,VServo,Flags
FMT, 146, 45, CMD, QHHHfffffff, TimeUS,CTot,CNum,CId,Prm1,Prm2,Prm3,Prm4,Lat,Lng,Alt
FMT, 147, 20, RAD, QBBBBBHH, TimeUS,RSSI,RemRSSI,TxBuf,Noise,RemNoise,RxErrors,Fixed
FMT, 149, 39, CAM, QIHLLeeccC, TimeUS,GPSTime,GPSWeek,Lat,Lng,Alt,RelAlt,Roll,Pitch,Yaw
FMT, 166, 29, ARSP, Qffcff, TimeUS,Airspeed,DiffPress,Temp,RawPress,Offset
FMT, 168, 25, CURR, QhhhHfh, TimeUS,Throttle,Volt,Curr,Vcc,CurrTot,Volt2
FMT, 167, 27, ATT, QccccCCCC, TimeUS,DesRoll,Roll,DesPitch,Pitch,DesYaw,Yaw,ErrRP,ErrYaw
FMT, 169, 30, MAG, QhhhhhhhhhB, TimeUS,MagX,MagY,MagZ,OfsX,OfsY,OfsZ,MOfsX,MOfsY,MOfsZ,Health
FMT, 172, 13, MODE, QMB, TimeUS,Mode,ModeNum
FMT, 197, 15, RFND, QCC, TimeUS,Dist1,Dist2
FMT, 137, 49, IMU2, QffffffIIfBB, TimeUS,GyrX,GyrY,GyrZ,AccX,AccY,AccZ,ErrG,ErrA,Temp,GyHlt,AcHlt
FMT, 150, 49, IMU3, QffffffIIfBB, TimeUS,GyrX,GyrY,GyrZ,AccX,AccY,AccZ,ErrG,ErrA,Temp,GyHlt,AcHlt
FMT, 140, 29, AHR2, QccCfLL, TimeUS,Roll,Pitch,Yaw,Alt,Lat,Lng
FMT, 183, 27, POS, QLLff, TimeUS,Lat,Lng,Alt,RelAlt
FMT, 141, 29, SIM, QccCfLL, TimeUS,Roll,Pitch,Yaw,Alt,Lat,Lng
FMT, 142, 47, EKF1, QccCffffffccc, TimeUS,Roll,Pitch,Yaw,VN,VE,VD,PN,PE,PD,GX,GY,GZ
FMT, 143, 30, EKF2, Qbbbcchhhhhh, TimeUS,Ratio,AZ1bias,AZ2bias,VWN,VWE,MN,ME,MD,MX,MY,MZ
FMT, 144, 31, EKF3, Qcccccchhhc, TimeUS,IVN,IVE,IVD,IPN,IPE,IPD,IMX,IMY,IMZ,IVT
FMT, 145, 33, EKF4, QcccccccbbBBHH, TimeUS,SV,SP,SH,SMX,SMY,SMZ,SVT,OFN,EFE,FS,TS,SS,GPS
FMT, 164, 28, EKF5, QBhhhcccCC, TimeUS,normInnov,FIX,FIY,AFI,HAGL,offset,RI,meaRng,errHAGL
FMT, 199, 47, NKF1, QccCffffffccc, TimeUS,Roll,Pitch,Yaw,VN,VE,VD,PN,PE,PD,GX,GY,GZ
FMT, 200, 34, NKF2, Qbccccchhhhhh, TimeUS,AZbias,GSX,GSY,GSZ,VWN,VWE,MN,ME,MD,MX,MY,MZ
FMT, 201, 33, NKF3, Qcccccchhhcc, TimeUS,IVN,IVE,IVD,IPN,IPE,IPD,IMX,IMY,IMZ,IYAW,IVT
FMT, 202, 33, NKF4, QcccccfbbBBHH, TimeUS,SV,SP,SH,SM,SVT,errRP,OFN,EFE,FS,TS,SS,GPS
FMT, 203, 28, NKF5, QBhhhcccCC, TimeUS,normInnov,FIX,FIY,AFI,HAGL,offset,RI,meaRng,errHAGL
FMT, 151, 34, TERR, QBLLHffHH, TimeUS,Status,Lat,Lng,Spacing,TerrH,CHeight,Pending,Loaded
FMT, 152, 18, UBX1, QBHBBH, TimeUS,Instance,noisePerMS,jamInd,aPower,agcCnt
FMT, 153, 16, UBX2, QBbBbB, TimeUS,Instance,ofsI,magI,ofsQ,magQ
FMT, 154, 18, UBY1, QBHBBH, TimeUS,Instance,noisePerMS,jamInd,aPower,agcCnt
FMT, 155, 16, UBY2, QBbBbB, TimeUS,Instance,ofsI,magI,ofsQ,magQ
FMT, 173, 42, GRAW, QIHBBddfBbB, TimeUS,WkMS,Week,numSV,sv,cpMes,prMes,doMes,mesQI,cno,lli
FMT, 174, 24, GRXH, QdHbBB, TimeUS,rcvTime,week,leapS,numMeas,recStat
FMT, 175, 41, GRXS, QddfBBBHBBBBB, TimeUS,prMes,cpMes,doMes,gnss,sv,freq,lock,cno,prD,cpD,doD,trk
FMT, 176, 63, SBFE, QIHBBdddfffff, TimeUS,TOW,WN,Mode,Err,Lat,Long,Height,Undul,Vn,Ve,Vu,COG
FMT, 156, 19, ESC1, Qcccc, TimeUS,RPM,Volt,Curr,Temp
FMT, 157, 19, ESC2, Qcccc, TimeUS,RPM,Volt,Curr,Temp
FMT, 158, 19, ESC3, Qcccc, TimeUS,RPM,Volt,Curr,Temp
FMT, 159, 19, ESC4, Qcccc, TimeUS,RPM,Volt,Curr,Temp
FMT, 160, 19, ESC5, Qcccc, TimeUS,RPM,Volt,Curr,Temp
FMT, 161, 19, ESC6, Qcccc, TimeUS,RPM,Volt,Curr,Temp
FMT, 162, 19, ESC7, Qcccc, TimeUS,RPM,Volt,Curr,Temp
FMT, 163, 19, ESC8, Qcccc, TimeUS,RPM,Volt,Curr,Temp
FMT, 170, 30, MAG2, QhhhhhhhhhB, TimeUS,MagX,MagY,MagZ,OfsX,OfsY,OfsZ,MOfsX,MOfsY,MOfsZ,Health
FMT, 171, 30, MAG3, QhhhhhhhhhB, TimeUS,MagX,MagY,MagZ,OfsX,OfsY,OfsZ,MOfsX,MOfsY,MOfsZ,Health
FMT, 177, 31, ACC1, QQfff, TimeUS,SampleUS,AccX,AccY,AccZ
FMT, 178, 31, ACC2, QQfff, TimeUS,SampleUS,AccX,AccY,AccZ
FMT, 179, 31, ACC3, QQfff, TimeUS,SampleUS,AccX,AccY,AccZ
FMT, 180, 31, GYR1, QQfff, TimeUS,SampleUS,GyrX,GyrY,GyrZ
FMT, 181, 31, GYR2, QQfff, TimeUS,SampleUS,GyrX,GyrY,GyrZ
FMT, 182, 31, GYR3, QQfff, TimeUS,SampleUS,GyrX,GyrY,GyrZ
FMT, 184, 35, PIDR, Qffffff, TimeUS,Des,P,I,D,FF,AFF
FMT, 185, 35, PIDP, Qffffff, TimeUS,Des,P,I,D,FF,AFF
FMT, 186, 35, PIDY, Qffffff, TimeUS,Des,P,I,D,FF,AFF
FMT, 187, 35, PIDA, Qffffff, TimeUS,Des,P,I,D,FF,AFF
FMT, 188, 35, PIDS, Qffffff, TimeUS,Des,P,I,D,FF,AFF
FMT, 165, 25, BAR2, Qffcf, TimeUS,Alt,Press,Temp,CRt
FMT, 198, 25, BAR3, Qffcf, TimeUS,Alt,Press,Temp,CRt
FMT, 189, 35, VIBE, QfffIII, TimeUS,VibeX,VibeY,VibeZ,Clip0,Clip1,Clip2
FMT, 190, 43, IMT, Qffffffff, TimeUS,DelT,DelvT,DelAX,DelAY,DelAZ,DelVX,DelVY,DelVZ
FMT, 191, 43, IMT2, Qffffffff, TimeUS,DelT,DelvT,DelAX,DelAY,DelAZ,DelVX,DelVY,DelVZ
FMT, 192, 43, IMT3, Qffffffff, TimeUS,DelT,DelvT,DelAX,DelAY,DelAZ,DelVX,DelVY,DelVZ
FMT, 193, 24, ORGN, QBLLe, TimeUS,Type,Lat,Lng,Alt
FMT, 194, 19, RPM, Qff, TimeUS,rpm1,rpm2
FMT, 25, 41, ATUN, QBBfffffff, TimeUS,Axis,TuneStep,Targ,Min,Max,RP,RD,SP,ddt
FMT, 26, 19, ATDE, Qff, TimeUS,Angle,Rate
FMT, 31, 22, PTUN, QBfHHH, TimeUS,Param,TunVal,CtrlIn,TunLo,TunHi
FMT, 12, 28, OF, QBffff, TimeUS,Qual,flowX,flowY,bodyX,bodyY
FMT, 5, 51, NTUN, Qffffffffff, TimeUS,DPosX,DPosY,PosX,PosY,DVelX,DVelY,VelX,VelY,DAccX,DAccY
FMT, 4, 39, CTUN, Qhhfffecchh, TimeUS,ThrIn,AngBst,ThrOut,DAlt,Alt,BarAlt,DSAlt,SAlt,DCRt,CRt
FMT, 6, 24, PM, QHHIhBH, TimeUS,NLon,NLoop,MaxT,PMT,I2CErr,INSErr
FMT, 29, 59, RATE, Qffffffffffff, TimeUS,RDes,R,ROut,PDes,P,POut,YDes,Y,YOut,ADes,A,AOut
FMT, 30, 27, MOTB, Qffff, TimeUS,LiftMax,BatVolt,BatRes,ThLimit
FMT, 10, 11, STRT, Q, TimeUS
FMT, 13, 12, EV, QB, TimeUS,Id
FMT, 20, 14, D16, QBh, TimeUS,Id,Value
FMT, 21, 14, DU16, QBH, TimeUS,Id,Value
FMT, 22, 16, D32, QBi, TimeUS,Id,Value
FMT, 23, 16, DU32, QBI, TimeUS,Id,Value
FMT, 24, 16, DFLT, QBf, TimeUS,Id,Value
FMT, 19, 13, ERR, QBB, TimeUS,Subsys,ECode
FMT, 32, 15, HELI, Qhh, TimeUS,DRRPM,ERRPM
FMT, 33, 36, PL, QBffffff, TimeUS,Heal,bX,bY,eX,eY,pX,pY
EV, 76695951, 10
MODE, 76695954, AltHold, 2
IMU, 76697562, -0.0004873134, 0.001199013, -0.0007342499, 0.03021659, 0.06933185, -9.73847, 0, 0, 40.89474, 1, 1
IMU2, 76697562, -0.004548755, -0.001691423, 0.004534584, -0.06661231, 0.09678008, -9.701562, 0, 0, 42.375, 1, 1
MSG, 76759337, APM:Copter V3.4-dev (461eff25)
MSG, 76759347, PX4: c3406165 NuttX: d48fa307
MSG, 76759390, PX4v2 003A0027 34324708 31323533
MSG, 76759400, New mission
CMD, 76759411, 7, 0, 16, 0, 0, 0, 0, 42.35622, -71.29914, 7.74
CMD, 76759424, 7, 1, 22, 0, 0, 0, 0, 0, 0, 4
CMD, 76759437, 7, 2, 201, 0, 0, 0, 0, 38.93508, -77.06123, 1
CMD, 76759449, 7, 3, 16, 0, 0, 0, 0, 38.93495, -77.06188, 29
CMD, 76759497, 7, 4, 16, 0, 0, 0, 0, 38.93505, -77.06138, 6.5
CMD, 76759509, 7, 5, 178, 0, 1, 0, 0, 0, 0, 0
CMD, 76759522, 7, 6, 16, 0, 0, 0, 0, 38.93507, -77.06133, 4
MSG, 76759528, Frame: QUAD
MODE, 76759664, AltHold, 2
IMU, 76764624, 0.001579371, 0.0007274513, -0.01455918, 0.03263168, 0.03701446, -9.733809, 0, 0, 40.89474, 1, 1
IMU2, 76764624, -0.006059797, -0.001747722, -0.01442873, -0.08440199, 0.07005008, -9.77568, 0, 0, 42.25, 1, 1
IMU, 76783100, 0.001012758, -1.555053E-05, -0.02586423, -0.01938027, 0.07300727, -9.795372, 0, 0, 40.85041, 1, 1
IMU2, 76783100, -0.002691565, -0.006741134, -0.02686316, -0.1171281, 0.1355201, -9.796689, 0, 0, 42.25, 1, 1
IMU, 76803203, -0.001281461, -0.0004130262, -0.003396286, 0.02889237, 0.09619395, -9.707503, 0, 0, 40.85041, 1, 1
IMU2, 76803203, 3.32886E-05, -0.007675845, -0.002932565, 0.04832562, 0.22558, -9.743647, 0, 0, 42.25, 1, 1
CURR, 76820656, 87, 1181, 150, 5194, 9.92288, 0
POWR, 76820673, 5.19, 0.05, 1
MAG, 76820705, 246, 41, 443, -69, 55, 19, 0, 0, 0, 1
MAG2, 76820709, 221, 3, 424, -27, 473, -77, 0, 0, 0, 1
BARO, 76820782, -0.02880878, 100970.6, 41.89, 0.08169501
CTUN, 76820792, 0, 0, 87, 0.005867207, 0.005867207, -0.02, 0.00, 0.00, -15, -15
DU32, 76820833, 7, 386520
ATT, 76821049, 0.00, -1.44, 0.00, -4.21, 332.81, 332.81, 0.01, 0.05
EKF1, 76821067, -1.44, -4.21, 332.81, 0.3745594, -0.3280728, 0.1542024, -0.299385, -0.1579043, -0.005867208, 0.00, -0.05, 0.07
EKF2, 76821074, 41, 5, 0, 0.00, 0.00, 219, -56, 456, 0, 0, 0
EKF3, 76821079, 0.47, -0.36, 0.28, 0.01, -0.01, 0.13, -1, 3, -1, 0.00
EKF4, 76821104, 0.13, 0.00, 0.01, 0.00, 0.02, 0.00, 0.00, 0, 0, 0, 16, 9023, 0
AHR2, 76821199, -0.58, -1.32, 333.21, 7.71, 42.3562188, -71.299145
POS, 76821227, 42.3562192, -71.2991453, 7.74, 0.005867208
RATE, 76821235, 23.7927, 23.7927, -8, 23.47273, 23.47273, 13, 17.14412, 17.14412, -3, -7.530403, -7.530403, 87
RCIN, 76821251, 1479, 1511, 992, 1516, 1146, 992, 992, 992, 0, 0, 0, 0, 0, 0
RCOU, 76821318, 1079, 1079, 1079, 1079, 0, 0, 0, 0, 1000, 1600, 0, 0
VIBE, 76821335, 0.5350804, 0.4754797, 0.366634, 0, 0, 0
IMU, 76824876, -0.001209015, -0.001107377, 0.007871453, 0.1269073, 0.02257888, -9.742299, 0, 0, 40.93906, 1, 1
IMU2, 76824876, 0.004781868, 0.002526501, 0.006022732, 0.1107033, 0.05340691, -9.785013, 0, 0, 42.25, 1, 1
IMU, 76843057, -7.454946E-07, 0.00210705, 0.03128165, 0.01006534, 0.01175565, -9.724008, 0, 0, 40.85041, 1, 1
IMU2, 76843057, 0.00342534, -0.01172841, 0.03965565, -0.09030165, 0.009965463, -9.713569, 0, 0, 42.25, 1, 1
IMU, 76863228, 0.0008580387, -0.000501588, 0.02669643, 0.01927523, 0.01801433, -9.733742, 0, 0, 40.93906, 1, 1
IMU2, 76863228, -0.001969019, -0.01251675, 0.0313914, -0.0842855, 0.005876404, -9.715881, 0, 0, 42.25, 1, 1
IMU, 76883126, -3.962492E-05, -0.0007650966, -0.007261453, 0.07025404, 0.05174878, -9.765842, 0, 0, 40.98338, 1, 1
IMU2, 76883126, -0.0047062, -0.005987898, -0.005689179, 0.0362104, 0.07600527, -9.814925, 0, 0, 42.25, 1, 1
GPS, 76900927, 3, 71966000, 1866, 7, 1.44, 42.3562185, -71.299145, -0.01, 5.30, 0.09, 72.04, 0.12, 1
GPA, 76900931, 1.90, 1.18, 1.87, 0.52
IMU, 76905414, -0.001968707, 0.0008793164, -0.03160844, 0.008133244, 0.06668138, -9.699728, 0, 0, 40.98338, 1, 1
IMU2, 76905414, -0.01048173, -0.002568158, -0.03554012, -0.05507176, 0.1737218, -9.757357, 0, 0, 42.25, 1, 1
CURR, 76921417, 87, 1184, 180, 5162, 9.973316, 0
POWR, 76921422, 5.16, 0.05, 1
MAG, 76921452, 246, 32, 449, -69, 55, 19, 0, 0, 0, 1
MAG2, 76921492, 214, 6, 451, -27, 473, -77, 0, 0, 0, 1
BARO, 76921529, 0.008642633, 100970.1, 41.89, -0.3147665
CTUN, 76921539, 0, 0, 87, -0.007619452, -0.007619452, 0.00, 0.00, 0.00, -15, -15
ATT, 76921660, 0.00, -1.45, 0.00, -4.20, 332.81, 332.81, 0.02, 0.04
EKF1, 76921678, -1.45, -4.20, 332.81, 0.3912418, -0.3447186, 0.1587097, -0.2825447, -0.1753225, 0.007619452, 0.00, -0.05, 0.07
EKF2, 76921685, 40, 5, 0, 0.00, 0.00, 219, -56, 456, 0, 0, 0
EKF3, 76921690, 0.47, -0.33, 0.03, 0.08, -0.04, -0.03, -6, 0, 3, 0.00
EKF4, 76921715, 0.11, 0.01, 0.00, 0.04, 0.00, 0.02, 0.00, 0, 0, 0, 16, 9023, 0
AHR2, 76921999, -0.58, -1.31, 333.22, 7.74, 42.3562185, -71.299145
POS, 76922035, 42.3562193, -71.2991455, 7.73, -0.007619452
RATE, 76922041, -34.60814, -34.60814, -1, -11.44203, -11.44203, -7, -191.7492, -191.7492, 0, -11.82222, -11.82222, 87
RCIN, 76922055, 1480, 1510, 992, 1516, 1146, 992, 993, 992, 0, 0, 0, 0, 0, 0
RCOU, 76922123, 1079, 1079, 1079, 1079, 0, 0, 0, 0, 1000, 1600, 0, 0
VIBE, 76922139, 0.5117424, 0.5340081, 0.5113304, 0, 0, 0
IMU, 76925584, -0.0008995508, 0.0005992218, -0.02725512, 0.003927791, 0.099069, -9.696424, 0, 0, 40.89474, 1, 1
IMU2, 76925584, -0.009465046, -0.006407561, -0.03016473, -0.0259731, 0.1190475, -9.710238, 0, 0, 42.125, 1, 1
IMU, 76945477, -0.005598394, -0.0005607758, 0.004375488, 0.04040327, 0.01058736, -9.760746, 0, 0, 40.89474, 1, 1
IMU2, 76945477, -0.005422977, -0.004044431, 0.004586662, 0.06077346, 0.07776102, -9.766267, 0, 0, 42.125, 1, 1
IMU, 76965467, -0.001284408, 0.002777703, 0.02406615, 0.006127774, -0.02108856, -9.734133, 0, 0, 40.85041, 1, 1
IMU2, 76965467, -0.0137839, -0.005082008, 0.02687408, -0.0003219185, 0.009131149, -9.719753, 0, 0, 42.25, 1, 1
IMU, 76985482, 0.002024486, -0.0001855086, 0.02738648, 0.02998988, -0.004812398, -9.728373, 0, 0, 40.93906, 1, 1
IMU2, 76985482, -0.0002963879, -0.01754463, 0.03200207, -0.03929842, 0.01614179, -9.771149, 0, 0, 42.375, 1, 1
IMU, 77003984, 0.002942399, 0.0009195224, -0.002330007, 0.04840013, 0.05969876, -9.761209, 0, 0, 40.93906, 1, 1
IMU2, 77003984, 0.004890454, -0.003566814, 0.004117422, -0.002185889, 0.0878906, -9.768718, 0, 0, 42.25, 1, 1
UBX1, 77021658, 0, 79, 4, 1, 4250
CURR, 77021678, 87, 1188, 160, 5164, 10.0181, 0
POWR, 77021682, 5.16, 0.05, 1
MAG, 77021724, 242, 37, 448, -69, 55, 19, 0, 0, 0, 1
MAG2, 77021728, 214, 7, 449, -27, 473, -77, 0, 0, 0, 1
BARO, 77021838, -0.01152351, 100970.4, 41.89, -0.5131068
CTUN, 77021848, 0, 0, 87, -0.02200683, -0.02200683, -0.01, 0.00, 0.00, -16, -16
ATT, 77022014, 0.00, -1.46, 0.00, -4.19, 332.84, 332.84, 0.02, 0.06
EKF1, 77022032, -1.46, -4.19, 332.84, 0.4091271, -0.3646949, 0.1620412, -0.2657159, -0.1960176, 0.02200683, 0.00, -0.05, 0.07
EKF2, 77022050, 40, 5, 0, 0.00, 0.00, 219, -56, 456, 0, 0, 0
EKF3, 77022055, 0.47, -0.33, 0.03, 0.08, -0.04, 0.00, -6, 9, -1, 0.00
EKF4, 77022079, 0.11, 0.01, 0.00, 0.04, 0.05, 0.01, 0.00, 0, 0, 0, 16, 9023, 0
AHR2, 77022090, -0.59, -1.34, 333.27, 7.72, 42.3562185, -71.299145
POS, 77022118, 42.3562195, -71.2991457, 7.71, -0.02200683
RATE, 77022123, 9.061275, 9.061275, 2, -0.5808489, -0.5808489, -10, -209.0173, -209.0173, 6, -3.113747, -3.113747, 87
RCIN, 77022138, 1479, 1511, 992, 1515, 1147, 992, 992, 992, 0, 0, 0, 0, 0, 0
RCOU, 77022247, 1079, 1079, 1079, 1079, 0, 0, 0, 0, 1000, 1600, 0, 0
VIBE, 77022264, 0.4052916, 0.4206978, 0.655169, 0, 0, 0
IMU, 77025823, -6.775722E-05, 0.0007401517, -0.03893597, 0.0003524695, 0.1276955, -9.786585, 0, 0, 40.8061, 1, 1
IMU2, 77025823, 0.001209053, 0.0004442237, -0.03738966, -0.01777348, 0.1938431, -9.730164, 0, 0, 42.25, 1, 1
UBX2, 77042210, 0, -12, 91, 10, 93
IMU, 77044274, -0.0064001, -0.003345079, -0.02145473, 0.003698367, 0.09371482, -9.745584, 0, 0, 40.89474, 1, 1
IMU2, 77044274, 0.004276638, -0.0135021, -0.02959246, -0.06881306, 0.08733253, -9.698235, 0, 0, 42.25, 1, 1
IMU, 77064236, 0.0001222069, 0.0004556669, 0.01124935, 0.07865397, 0.03903067, -9.672432, 0, 0, 40.89474, 1, 1
IMU2, 77064236, 0.002755999, -0.006423315, 0.006388188, 0.01722118, 0.08432794, -9.698591, 0, 0, 42.25, 1, 1
IMU, 77084476, -0.005881147, 0.009305289, 0.02441112, 0.0103742, -0.02611488, -9.779434, 0, 0, 40.89474, 1, 1
IMU2, 77084476, -0.00568101, -0.0003694679, 0.02476905, -0.01489796, 0.07900091, -9.706984, 0, 0, 42.25, 1, 1
GPS, 77101904, 3, 71966200, 1866, 7, 1.44, 42.3562183, -71.299145, -0.04, 5.26, 0.14, 72.04, 0.05, 1
GPA, 77101988, 1.90, 1.18, 1.87, 0.42
IMU, 77105457, 0.004360329, 0.003587413, 0.03062299, -0.02481091, -0.07071231, -9.72882, 0, 0, 40.89474, 1, 1
IMU2, 77105457, 0.005470779, -0.01519187, 0.02718773, -0.02846664, 0.03959589, -9.734439, 0, 0, 42.25, 1, 1
CURR, 77121869, 87, 1189, 140, 5206, 10.05728, 0
POWR, 77121873, 5.20, 0.05, 1
MAG, 77121955, 246, 34, 447, -69, 55, 19, 0, 0, 0, 1
MAG2, 77121959, 216, 8, 444, -27, 473, -77, 0, 0, 0, 1
BARO, 77122040, -0.06914107, 100971, 41.89, -0.4716576
CTUN, 77122051, 0, 0, 87, -0.03710352, -0.03710352, -0.06, 0.00, 0.00, -16, -16
ATT, 77122157, 0.00, -1.45, 0.00, -4.17, 332.87, 332.87, 0.02, 0.06
EKF1, 77122175, -1.45, -4.17, 332.87, 0.4257112, -0.3825489, 0.1687081, -0.247448, -0.2179456, 0.03710352, 0.00, -0.05, 0.07
EKF2, 77122181, 41, 5, -1, 0.00, 0.00, 219, -56, 456, 0, 0, 0
EKF3, 77122186, 0.50, -0.40, 0.10, 0.09, -0.03, 0.00, -2, 4, 0, 0.00
EKF4, 77122211, 0.12, 0.02, 0.00, 0.01, 0.02, 0.00, 0.00, 0, 0, 0, 16, 9023, 0
AHR2, 77122222, -0.59, -1.37, 333.32, 7.67, 42.3562183, -71.299145
POS, 77122249, 42.3562196, -71.299146, 7.7, -0.03710352
RATE, 77122255, 49.73759, 49.73759, 4, -16.17443, -16.17443, 3, -3.124911, -3.124911, 6, -8.919048, -8.919048, 87
RCIN, 77122270, 1479, 1511, 992, 1516, 1146, 992, 993, 991, 0, 0, 0, 0, 0, 0
RCOU, 77122338, 1079, 1079, 1079, 1079, 0, 0, 0, 0, 1000, 1600, 0, 0
VIBE, 77122354, 0.427958, 0.5293472, 0.6221719, 0, 0, 0
IMU, 77126152, 0.005808046, -0.00166467, -0.00565878, 0.04056805, 0.06326155, -9.754851, 0, 0, 40.89474, 1, 1
IMU2, 77126152, 0.01121875, -0.006574377, -0.002541543, -0.07641101, 0.09060188, -9.755472, 0, 0, 42.25, 1, 1
IMU, 77145787, 0.000541316, -0.001010309, -0.02573782, 0.0396768, 0.08088387, -9.791906, 0, 0, 40.89474, 1, 1
IMU2, 77145787, -0.00334622, -0.002710969, -0.02762932, -0.008428057, 0.03959784, -9.886177, 0, 0, 42.25, 1, 1
IMU, 77165765, 0.001368819, 0.005976592, -0.01630969, 0.05348309, 0.1766591, -9.669557, 0, 0, 40.85041, 1, 1
IMU2, 77165765, -0.01007848, -0.001898642, -0.02332402, 0.1399229, 0.2634513, -9.649936, 0, 0, 42.25, 1, 1
IMU, 77185963, -0.004657348, 0.006006273, -0.002460232, -0.02574949, 0.0869862, -9.793942, 0, 0, 40.85041, 1, 1
IMU2, 77185963, -0.005598628, -0.009359038, -0.005056055, -0.04704122, 0.1463378, -9.769928, 0, 0, 42.25, 1, 1
IMU, 77204276, -0.005998165, -0.003440731, 0.02642101, 0.02031977, -0.06428742, -9.767632, 0, 0, 40.93906, 1, 1
IMU2, 77204276, -0.006827999, -0.01433406, 0.02882953, 0.05900823, 0.007409841, -9.781099, 0, 0, 42.125, 1, 1
CURR, 77222080, 87, 1188, 125, 5196, 10.09232, 0
POWR, 77222115, 5.19, 0.05, 1
MAG, 77222151, 242, 38, 446, -69, 55, 19, 0, 0, 0, 1
MAG2, 77222156, 218, 8, 444, -27, 473, -77, 0, 0, 0, 1
BARO, 77222192, -0.09794985, 100971.3, 41.88, -0.306511
CTUN, 77222202, 0, 0, 87, -0.05378956, -0.05378956, -0.09, 0.00, 0.00, -17, -17
ATT, 77222279, 0.00, -1.46, 0.00, -4.16, 332.87, 332.87, 0.02, 0.06
EKF1, 77222297, -1.46, -4.16, 332.87, 0.4436877, -0.4010175, 0.1728632, -0.2292795, -0.2395367, 0.05378956, 0.00, -0.05, 0.07
EKF2, 77222304, 41, 5, -1, 0.00, 0.00, 219, -56, 456, 0, 0, 0
EKF3, 77222309, 0.50, -0.40, 0.10, 0.09, -0.03, -0.04, -6, 7, 0, 0.00
EKF4, 77222338, 0.12, 0.02, 0.00, 0.04, 0.04, 0.00, 0.00, 0, 0, 0, 16, 9023, 0
AHR2, 77222349, -0.58, -1.37, 333.34, 7.64, 42.3562183, -71.299145
POS, 77222405, 42.3562198, -71.2991463, 7.68, -0.05378956
RATE, 77222411, 7.103641, 7.103641, -6, -30.45106, -30.45106, 2, 103.7582, 103.7582, 0, -11.19108, -11.19108, 87
RCIN, 77222426, 1479, 1511, 992, 1515, 1147, 992, 992, 992, 0, 0, 0, 0, 0, 0
RCOU, 77222498, 1079, 1079, 1079, 1079, 0, 0, 0, 0, 1000, 1600, 0, 0
VIBE, 77222557, 0.3783716, 0.6499272, 0.4787418, 0, 0, 0
IMU, 77225991, 0.0001258192, -0.0005036687, 0.0130377, 0.03389505, -0.06562112, -9.699881, 0, 0, 40.85041, 1, 1
IMU2, 77225991, 0.0001948177, -0.01477304, 0.02136291, 0.03226418, 0.0326161, -9.694748, 0, 0, 42.25, 1, 1
IMU, 77244374, 0.004150296, 0.0008871451, -0.0002261349, 0.0312612, 0.005961056, -9.724033, 0, 0, 40.85041, 1, 1
IMU2, 77244374, -0.0006723998, -0.001040092, 0.003813092, -0.0776271, 0.09162355, -9.768817, 0, 0, 42.25, 1, 1
IMU, 77264601, 0.0007001976, 0.00548611, -0.02250934, 0.00925417, 0.1469343, -9.737782, 0, 0, 40.93906, 1, 1
IMU2, 77264601, 0.005427079, 0.005015275, -0.0205128, -0.07688365, 0.09764269, -9.785161, 0, 0, 42.25, 1, 1
IMU, 77284807, -0.004645882, 0.001852677, -0.01364248, -0.003548198, 0.07546118, -9.776858, 0, 0, 40.98338, 1, 1
IMU2, 77284807, -0.002477473, 8.361453E-05, -0.01285852, -0.04617311, 6.800576E-05, -9.841038, 0, 0, 42.25, 1, 1
GPS, 77302255, 3, 71966400, 1866, 7, 1.44, 42.3562181, -71.299145, -0.07, 5.21, 0.14, 72.04, 0.13, 1
GPA, 77302296, 1.90, 1.18, 1.88, 0.51
IMU, 77305792, -0.002750802, -0.0008394939, 0.003305006, -0.003279297, 0.05319306, -9.741369, 0, 0, 40.89474, 1, 1
IMU2, 77305792, -0.009351233, -0.006974927, 0.004673935, -0.03681308, 0.01767313, -9.702525, 0, 0, 42.25, 1, 1
CURR, 77322223, 87, 1194, 134, 5212, 10.12966, 0
POWR, 77322227, 5.21, 0.05, 1
MAG, 77322294, 240, 37, 450, -69, 55, 19, 0, 0, 0, 1
MAG2, 77322299, 217, 9, 444, -27, 473, -77, 0, 0, 0, 1
BARO, 77322339, -0.2016615, 100972.4, 41.89, -0.3146735
CTUN, 77322350, 0, 0, 87, -0.07174954, -0.07174954, -0.20, 0.00, 0.00, -17, -17
ATT, 77322427, 0.00, -1.46, 0.00, -4.14, 332.85, 332.85, 0.03, 0.05
EKF1, 77322445, -1.46, -4.14, 332.85, 0.4569272, -0.4163496, 0.1780932, -0.2104897, -0.2629815, 0.07174954, 0.00, -0.05, 0.06
EKF2, 77322452, 39, 5, -1, 0.00, 0.00, 219, -56, 456, 0, 0, 0
EKF3, 77322457, 0.55, -0.29, 0.03, 0.15, -0.07, -0.05, -3, 2, 0, 0.00
EKF4, 77322481, 0.12, 0.03, 0.00, 0.02, 0.01, 0.00, 0.00, 0, 0, 0, 16, 9023, 0
AHR2, 77322492, -0.57, -1.36, 333.34, 7.53, 42.3562181, -71.299145
POS, 77322520, 42.35622, -71.2991465, 7.66, -0.07174954
RATE, 77322525, -9.821356, -9.821356, -7, -35.4521, -35.4521, 4, 85.26527, 85.26527, -3, -8.744144, -8.744144, 87
RCIN, 77322540, 1480, 1510, 992, 1515, 1147, 992, 992, 992, 0, 0, 0, 0, 0, 0
RCOU, 77322608, 1079, 1079, 1079, 1079, 0, 0, 0, 0, 1000, 1600, 0, 0
VIBE, 77322624, 0.3455018, 0.5719572, 0.4649415, 0, 0, 0
IMU, 77327646, -0.0003501217, -0.0001078747, 0.01788436, -0.01161498, -0.07065, -9.789429, 0, 0, 40.93906, 1, 1
IMU2, 77327646, -0.00298597, -0.01766875, 0.025398, -7.161032E-05, -0.02838775, -9.699862, 0, 0, 42.25, 1, 1
IMU, 77347688, 0.0004180969, 0.001392006, 0.009610156, 0.04296966, 0.02686613, -9.730319, 0, 0, 40.93906, 1, 1
IMU2, 77347688, 0.0021734, -0.008256266, 0.01916728, -0.03023456, 0.04447969, -9.743284, 0, 0, 42.25, 1, 1
IMU, 77367644, 0.006542869, 0.005394198, -0.003455275, -0.01421775, 0.009605575, -9.766932, 0, 0, 40.85041, 1, 1
IMU2, 77367644, -0.001136354, -0.0046208, 0.0001770695, -0.05688605, 0.05743062, -9.84848, 0, 0, 42.25, 1, 1
IMU, 77387481, 0.007161326, 0.005501729, -0.01116789, 0.008040383, 0.2280552, -9.759354, 0, 0, 40.89474, 1, 1
IMU2, 77387481, 0.01067496, -0.001382417, -0.008570944, -0.106575, 0.2052533, -9.818859, 0, 0, 42.25, 1, 1
IMU, 77407573, 0.003738217, 0.0004775285, -0.007990507, -0.0147226, 0.1527291, -9.772599, 0, 0, 40.89474, 1, 1
IMU2, 77407573, 0.002917484, -0.00598105, -0.002485118, -0.007659303, 0.1996574, -9.859339, 0, 0, 42.25, 1, 1
CURR, 77422847, 87, 1182, 138, 5190, 10.16841, 0
POWR, 77422852, 5.19, 0.05, 1
MAG, 77422893, 244, 36, 449, -69, 55, 19, 0, 0, 0, 1
MAG2, 77422898, 217, 9, 444, -27, 473, -77, 0, 0, 0, 1
BARO, 77422933, 0.005761756, 100970.1, 41.88, -0.3858265
CTUN, 77422947, 0, 0, 87, -0.09530606, -0.09530606, 0.00, 0.00, 0.00, -18, -18
ATT, 77423104, 0.00, -1.45, 0.00, -4.12, 332.87, 332.87, 0.03, 0.05
EKF1, 77423127, -1.45, -4.12, 332.87, 0.4705801, -0.4323416, 0.182137, -0.1944028, -0.2897532, 0.09530606, 0.00, -0.05, 0.06
EKF2, 77423134, 39, 5, -1, 0.00, 0.00, 219, -56, 456, 0, 0, 0
EKF3, 77423138, 0.55, -0.29, 0.03, 0.15, -0.07, -0.14, 0, 4, -3, 0.00
EKF4, 77423163, 0.12, 0.03, 0.01, 0.00, 0.02, 0.02, 0.00, 0, 0, 0, 16, 9023, 0
AHR2, 77423174, -0.60, -1.38, 333.37, 7.74, 42.3562181, -71.299145
POS, 77423202, 42.3562201, -71.2991469, 7.64, -0.09530606
RATE, 77423207, -10.68789, -10.68789, 33, -19.24855, -19.24855, 12, 68.41393, 68.41393, -2, -11.092, -11.092, 87
RCIN, 77423222, 1480, 1511, 992, 1515, 1147, 992, 992, 992, 0, 0, 0, 0, 0, 0
RCOU, 77423290, 1079, 1079, 1079, 1079, 0, 0, 0, 0, 1000, 1600, 0, 0
VIBE, 77423310, 0.4011885, 1.408472, 0.5190203, 0, 0, 0
IMU, 77427756, -0.002034507, -0.0006751618, 0.007790664, 0.04607564, 0.2093199, -9.740438, 0, 0, 40.89474, 1, 1
IMU2, 77427756, -0.003361241, -0.006827537, 0.02077216, -0.03548677, 0.2093843, -9.850891, 0, 0, 42.25, 1, 1
IMU, 77447496, -0.002304456, -0.0007530252, 0.01270585, 0.004770684, -0.01320479, -9.758575, 0, 0, 40.8061, 1, 1
IMU2, 77447496, 0.005290862, -0.009170645, 0.01628132, 0.01362294, 0.07408007, -9.889932, 0, 0, 42.25, 1, 1
IMU, 77467627, -0.000337492, -0.0009347966, 0.006797423, 0.02158582, 0.109434, -9.702852, 0, 0, 40.98338, 1, 1
IMU2, 77467627, -0.007045466, -0.01292329, 0.010353, -0.09411337, 0.2354808, -9.762967, 0, 0, 42.25, 1, 1
IMU, 77487645, -0.005411545, -0.001451223, -0.008429646, 0.004986443, -0.03338876, -9.768393, 0, 0, 40.85041, 1, 1
IMU2, 77487645, -0.001462583, -0.007376135, -0.0031601, -0.09343041, 0.09733883, -9.859558, 0, 0, 42.25, 1, 1
GPS, 77502660, 3, 71966600, 1866, 7, 1.44, 42.3562179, -71.2991451, -0.11, 5.18, 0.06, 72.04, 0.08, 1
GPA, 77502664, 1.90, 1.18, 1.88, 0.37
IMU, 77507740, -0.004144164, -0.0007312712, -0.01286368, 0.007952561, 0.2294696, -9.744232, 0, 0, 40.93906, 1, 1
IMU2, 77507740, -0.004004192, -0.004569487, -0.002103365, -0.06292058, 0.2146404, -9.853719, 0, 0, 42.25, 1, 1
CURR, 77522762, 87, 1190, 134, 5167, 10.20585, 0
POWR, 77522767, 5.16, 0.05, 1
MAG, 77522798, 245, 35, 443, -69, 55, 19, 0, 0, 0, 1
MAG2, 77522803, 217, 9, 444, -27, 473, -77, 0, 0, 0, 1
BARO, 77522911, -0.03457053, 100970.6, 41.89, -0.1979619
CTUN, 77522922, 0, 0, 87, -0.1078243, -0.1078243, -0.03, 0.00, 0.00, -18, -18
ATT, 77522998, 0.00, -1.45, 0.00, -4.10, 332.89, 332.89, 0.04, 0.05
EKF1, 77523016, -1.45, -4.10, 332.89, 0.4779609, -0.4544483, 0.1831497, -0.1775236, -0.3164044, 0.1078243, -0.01, -0.06, 0.06
EKF2, 77523030, 42, 5, -1, 0.00, 0.00, 219, -56, 456, 0, 0, 0
EKF3, 77523036, 0.46, -0.46, 0.09, 0.21, -0.11, 0.08, -5, 5, -1, 0.00
EKF4, 77523060, 0.13, 0.04, 0.00, 0.03, 0.03, 0.01, 0.00, 0, 0, 0, 16, 9023, 0
AHR2, 77523071, -0.62, -1.41, 333.40, 7.7, 42.3562179, -71.2991451
POS, 77523129, 42.3562203, -71.2991472, 7.63, -0.1078243
RATE, 77523135, 33.88241, 33.88241, 17, -4.685892, -4.685892, 10, -18.57569, -18.57569, -1, -8.771992, -8.771992, 87
RCIN, 77523150, 1480, 1510, 992, 1516, 1146, 992, 993, 992, 0, 0, 0, 0, 0, 0
RCOU, 77523218, 1079, 1079, 1079, 1079, 0, 0, 0, 0, 1000, 1600, 0, 0
VIBE, 77523234, 0.3910107, 2.01441, 0.5220727, 0, 0, 0
IMU, 77528715, -6.146607E-05, 0.003407458, -0.004043189, 0.01093275, 0.0975969, -9.757531, 0, 0, 40.85041, 1, 1
IMU2, 77528715, -0.00203661, -0.006487175, 0.004138811, 0.02741138, 0.1175243, -9.858186, 0, 0, 42.25, 1, 1
IMU, 77547621, 0.001402138, -0.0005321749, 0.006407245, 0.007449019, 0.1847527, -9.737576, 0, 0, 40.89474, 1, 1
IMU2, 77547621, -3.060876E-05, -0.01008479, 0.006094063, -0.0006794208, 0.2416753, -9.76843, 0, 0, 42.25, 1, 1
IMU, 77567642, -0.001260433, -0.0004611677, 0.01041053, -0.03032598, -0.001692956, -9.774303, 0, 0, 40.98338, 1, 1
IMU2, 77567642, 0.006727699, -0.007335177, 0.01183417, -0.06587729, 0.02286758, -9.808753, 0, 0, 42.25, 1, 1
IMU, 77587693, 0.0008129869, 0.001887634, 0.003381758, 0.0186343, 0.1296128, -9.758173, 0, 0, 40.98338, 1, 1
IMU2, 77587693, -0.007764942, -0.0122004, 0.01539115, 0.007334452, 0.07809003, -9.837488, 0, 0, 42.25, 1, 1
IMU, 77607765, 0.005180406, 0.003742273, -0.003987567, -0.03071061, 0.01839035, -9.740456, 0, 0, 40.98338, 1, 1
IMU2, 77607765, 0.0003715894, -0.00620093, 0.002757456, -0.01371924, 0.1043636, -9.796973, 0, 0, 42.25, 1, 1
CURR, 77622688, 87, 1182, 133, 5193, 10.24288, 0
POWR, 77622693, 5.19, 0.05, 1
MAG, 77622820, 242, 37, 448, -69, 55, 19, 0, 0, 0, 1
MAG2, 77622824, 218, 7, 447, -27, 473, -77, 0, 0, 0, 1
BARO, 77622860, 0.1901379, 100968.1, 41.89, 0.2680691
CTUN, 77622871, 0, 0, 87, -0.1209115, -0.1209115, 0.19, 0.00, 0.00, -18, -18
ATT, 77622947, 0.00, -1.43, 0.00, -4.08, 332.92, 332.92, 0.04, 0.06
EKF1, 77622966, -1.43, -4.08, 332.92, 0.4955544, -0.4606545, 0.1861818, -0.160123, -0.3375517, 0.1209115, 0.00, -0.06, 0.06
EKF2, 77622972, 42, 5, -1, 0.00, 0.00, 219, -56, 456, 0, 0, 0
EKF3, 77622977, 0.46, -0.46, 0.09, 0.21, -0.11, 0.06, -6, 6, 4, 0.00
EKF4, 77623002, 0.13, 0.04, 0.00, 0.04, 0.04, 0.02, 0.00, 0, 0, 0, 16, 9023, 0
AHR2, 77623013, -0.55, -1.43, 333.44, 7.93, 42.3562179, -71.2991451
POS, 77623049, 42.3562204, -71.2991475, 7.61, -0.1209115
RATE, 77623054, -30.17752, -30.17752, 32, -1.90068, -1.90068, 0, -37.81151, -37.81151, 1, -9.027863, -9.027863, 87
RCIN, 77623069, 1479, 1511, 992, 1515, 1147, 992, 992, 992, 0, 0, 0, 0, 0, 0
RCOU, 77623166, 1079, 1079, 1079, 1079, 0, 0, 0, 0, 1000, 1600, 0, 0
VIBE, 77623183, 0.4098407, 1.8284, 0.5631852, 0, 0, 0
IMU, 77627877, 0.0009221728, 0.004477739, -0.006255831, -0.01591401, 0.1376162, -9.78352, 0, 0, 40.98338, 1, 1
IMU2, 77627877, -0.006961832, 0.001095377, -0.001889888, -0.08342249, 0.1937791, -9.78969, 0, 0, 42.25, 1, 1
IMU, 77647565, 0.0003405033, 0.001984935, -0.00173703, -0.04634976, 0.06776054, -9.770605, 0, 0, 40.89474, 1, 1
IMU2, 77647565, -0.003695794, -0.00831499, 0.003273509, -0.1116688, 0.05649226, -9.770174, 0, 0, 42.25, 1, 1
IMU, 77667651, 0.002185019, 0.00250259, 0.008176094, -0.01896369, 0.1060817, -9.727937, 0, 0, 40.89474, 1, 1
IMU2, 77667651, -0.003214807, -0.004317127, 0.007205069, 0.03106651, 0.03179202, -9.75276, 0, 0, 42.25, 1, 1
IMU, 77687578, 0.003463747, 0.005448429, 0.002841355, 0.03714232, 0.06769589, -9.720688, 0, 0, 40.89474, 1, 1
IMU2, 77687578, 0.004884879, -0.006906593, 0.009520167, 0.03446787, 0.1108442, -9.68752, 0, 0, 42.25, 1, 1
GPS, 77702613, 3, 71966800, 1866, 7, 1.44, 42.3562179, -71.2991451, -0.13, 5.13, 0.06, 72.04, 0.15, 1
GPA, 77702617, 1.90, 1.18, 1.89, 0.44
IMU, 77707602, 0.004006183, 0.006022246, 0.003290322, 0.06422317, 0.01869908, -9.757434, 0, 0, 40.93906, 1, 1
IMU2, 77707602, 0.005939996, -0.005668592, 0.007371807, -0.0001367859, 0.1264577, -9.642897, 0, 0, 42.25, 1, 1
CURR, 77722536, 87, 1186, 137, 5199, 10.28095, 0
POWR, 77722540, 5.19, 0.05, 1
MAG, 77722640, 243, 36, 447, -69, 55, 19, 0, 0, 0, 1
MAG2, 77722644, 216, 9, 444, -27, 473, -77, 0, 0, 0, 1
BARO, 77722680, 0.2275894, 100967.7, 41.89, 0.7137632
CTUN, 77722690, 0, 0, 87, -0.1229022, -0.1229022, 0.22, 0.00, 0.00, -18, -18
ATT, 77722821, 0.00, -1.42, 0.00, -4.06, 332.95, 332.95, 0.04, 0.05
EKF1, 77722839, -1.42, -4.06, 332.95, 0.5064607, -0.4747896, 0.1891882, -0.1425144, -0.3591807, 0.1229022, -0.01, -0.06, 0.06
EKF2, 77722851, 41, 5, -1, 0.00, 0.00, 219, -56, 456, 0, 0, 0
EKF3, 77722856, 0.53, -0.45, 0.03, 0.24, -0.16, 0.30, -3, 4, 0, 0.00
EKF4, 77722881, 0.13, 0.05, 0.02, 0.02, 0.02, 0.00, 0.00, 0, 0, 0, 16, 9023, 0
AHR2, 77722892, -0.50, -1.44, 333.47, 7.96, 42.3562179, -71.2991451
POS, 77722919, 42.3562206, -71.2991477, 7.61, -0.1229022
RATE, 77722937, 6.586328, 6.586328, -11, 6.971716, 6.971716, -6, -5.528239, -5.528239, 1, -4.481506, -4.481506, 87
RCIN, 77722952, 1480, 1510, 993, 1515, 1146, 992, 993, 992, 0, 0, 0, 0, 0, 0
RCOU, 77723060, 1079, 1079, 1079, 1079, 0, 0, 0, 0, 1000, 1600, 0, 0
VIBE, 77723077, 0.5111271, 1.210506, 0.6064702, 0, 0, 0
IMU, 77727788, 0.003837496, 0.002976506, -0.006571474, 0.05754888, 0.09819134, -9.74895, 0, 0, 40.85041, 1, 1
IMU2, 77727788, -0.002726146, -0.005911659, -0.0006962514, -0.05987226, 0.09906659, -9.714481, 0, 0, 42.125, 1, 1
IMU, 77748137, -0.002059069, -0.001562314, -0.00572995, 0.07234903, -0.01178212, -9.742628, 0, 0, 40.93906, 1, 1
IMU2, 77748137, 0.005304581, -0.007786449, -0.0005378301, -0.0564843, 0.07317693, -9.776831, 0, 0, 42.125, 1, 1
IMU, 77767613, -0.002230404, -0.001310311, -0.0022103, 0.06971189, 0.1512045, -9.709501, 0, 0, 40.85041, 1, 1
IMU2, 77767613, -0.0006243033, -0.008951619, -0.002273097, 0.0100831, 0.1431013, -9.745699, 0, 0, 42.125, 1, 1
IMU, 77787563, -0.0007898759, 0.001360127, 0.008364558, 0.03751419, -0.1005027, -9.707227, 0, 0, 40.85041, 1, 1
IMU2, 77787563, 0.00308453, -0.01057173, 0.009740287, -0.005112172, -0.01232221, -9.688278, 0, 0, 42.25, 1, 1
IMU, 77807720, 0.002441209, -0.003436622, 0.002518414, 0.02586415, 0.1127636, -9.712975, 0, 0, 40.93906, 1, 1
IMU2, 77807720, 0.0004128071, -0.01232948, 0.01093943, 0.01619376, 0.1857419, -9.574539, 0, 0, 42.25, 1, 1
CURR, 77822659, 87, 1188, 135, 5209, 10.31853, 0
POWR, 77822700, 5.20, 0.05, 1
MAG, 77822742, 243, 35, 448, -69, 55, 19, 0, 0, 0, 1
MAG2, 77822800, 217, 7, 445, -27, 473, -77, 0, 0, 0, 1
BARO, 77822834, 0.005761756, 100970.2, 41.90, 0.8570612
CTUN, 77822845, 0, 0, 87, -0.123488, -0.123488, 0.00, 0.00, 0.00, -19, -19
DU32, 77822921, 7, 386520
ATT, 77823062, 0.00, -1.41, 0.00, -4.04, 332.97, 332.97, 0.04, 0.06
EKF1, 77823080, -1.41, -4.04, 332.97, 0.512493, -0.4867159, 0.1906185, -0.1271243, -0.3797981, 0.123488, -0.01, -0.06, 0.06
EKF2, 77823087, 41, 5, -1, 0.00, 0.00, 219, -56, 456, 0, 0, 0
EKF3, 77823092, 0.53, -0.45, 0.03, 0.24, -0.16, 0.34, -4, 5, 0, 0.00
EKF4, 77823116, 0.13, 0.05, 0.03, 0.03, 0.03, 0.00, 0.00, 0, 0, 0, 16, 9023, 0
AHR2, 77823127, -0.52, -1.45, 333.50, 7.74, 42.3562179, -71.2991451
POS, 77823155, 42.3562207, -71.299148, 7.61, -0.123488
RATE, 77823160, -3.212666, -3.212666, -10, -6.0854, -6.0854, -1, 40.86205, 40.86205, 0, -9.780693, -9.780693, 87
RCIN, 77823175, 1479, 1510, 993, 1515, 1146, 993, 992, 992, 0, 0, 0, 0, 0, 0
RCOU, 77823243, 1079, 1079, 1079, 1079, 0, 0, 0, 0, 1000, 1600, 0, 0
VIBE, 77823259, 0.4738569, 0.9744518, 0.6286139, 0, 0, 0
IMU, 77827766, -0.0001890189, -0.0005254804, -0.0005562711, 0.003776022, -0.03798007, -9.710241, 0, 0, 40.89474, 1, 1
IMU2, 77827766, -0.002338082, 0.0003303412, 0.00728846, -0.04648172, 0.05528364, -9.790659, 0, 0, 42.25, 1, 1
IMU, 77847660, 0.003357317, -0.001359863, -0.002337995, 0.02797435, 0.1600685, -9.715364, 0, 0, 40.89474, 1, 1
IMU2, 77847660, 0.009546158, -0.0006526491, -0.003917921, 0.01403446, 0.1634935, -9.732321, 0, 0, 42.25, 1, 1
IMU, 77867503, -0.002262655, 0.003609414, -0.00335125, -0.005448517, -0.03097469, -9.748169, 0, 0, 40.89474, 1, 1
IMU2, 77867503, 0.008522661, -0.00487945, 0.002136159, -0.09548713, -0.07408842, -9.73063, 0, 0, 42.25, 1, 1
IMU, 77887582, -0.004419678, 0.0004574718, 0.006928056, 0.009828057, -0.03042603, -9.747713, 0, 0, 40.89474, 1, 1
IMU2, 77887582, -0.001300648, -0.006853005, 0.01218001, -0.1725367, -0.05405626, -9.719706, 0, 0, 42.25, 1, 1
GPS, 77902557, 3, 71967000, 1866, 7, 1.44, 42.3562179, -71.2991452, -0.14, 5.05, 0.16, 72.04, 0.15, 1
GPA, 77902561, 1.90, 1.18, 1.89, 0.41
IMU, 77907619, -0.004743685, 0.002290817, -0.0006789045, -0.02432872, 0.004082411, -9.765263, 0, 0, 40.89474, 1, 1
IMU2, 77907619, -0.009392397, -0.01103376, 0.009988952, -0.04477373, 0.1243188, -9.78802, 0, 0, 42.25, 1, 1
CURR, 77922582, 87, 1188, 133, 5167, 10.35553, 0
POWR, 77922586, 5.16, 0.05, 1
MAG, 77922618, 244, 34, 448, -69, 55, 19, 0, 0, 0, 1
MAG2, 77922622, 217, 9, 443, -27, 473, -77, 0, 0, 0, 1
BARO, 77922660, -0.01152351, 100970.4, 41.89, 0.4690429
CTUN, 77922670, 0, 0, 87, -0.1349911, -0.1349911, -0.01, 0.00, 0.00, -19, -19
ATT, 77922863, 0.00, -1.41, 0.00, -4.01, 332.99, 332.99, 0.05, 0.06
EKF1, 77922881, -1.41, -4.01, 332.99, 0.5217728, -0.4955252, 0.1931595, -0.1098684, -0.4010402, 0.1349911, -0.01, -0.07, 0.06
EKF2, 77922887, 41, 5, -1, 0.00, 0.00, 219, -56, 456, 0, 0, 0
EKF3, 77922892, 0.33, -0.46, 0.03, 0.28, -0.20, 0.12, -4, 6, 0, 0.00
EKF4, 77922922, 0.11, 0.06, 0.01, 0.02, 0.04, 0.00, 0.00, 0, 0, 0, 16, 9023, 0
AHR2, 77922932, -0.53, -1.46, 333.53, 7.72, 42.3562179, -71.2991452
POS, 77922960, 42.3562209, -71.2991482, 7.6, -0.1349911
RATE, 77922966, 4.757936, 4.757936, 32, -21.70975, -21.70975, -5, 44.38963, 44.38963, -1, -6.123161, -6.123161, 87
RCIN, 77922981, 1479, 1511, 992, 1515, 1147, 992, 992, 992, 0, 0, 0, 0, 0, 0
RCOU, 77923059, 1079, 1079, 1079, 1079, 0, 0, 0, 0, 1000, 1600, 0, 0
VIBE, 77923076, 0.4741336, 1.980495, 0.63135, 0, 0, 0
IMU, 77928217, 0.0008121805, 0.002470057, 0.008803646, 0.03049108, 0.1283121, -9.741234, 0, 0, 40.93906, 1, 1
IMU2, 77928217, 0.0006990444, -0.003587446, 0.008238751, 0.0471949, 0.2188954, -9.776188, 0, 0, 42.25, 1, 1
IMU, 77947975, 0.002243597, -0.0006295767, -0.00540328, 0.09894399, 0.1729235, -9.711336, 0, 0, 40.85041, 1, 1
IMU2, 77947975, 9.280629E-05, -0.002840875, -0.004164313, 0.03187493, 0.2012119, -9.743783, 0, 0, 42.25, 1, 1
RAD, 77965575, 165, 162, 0, 33, 41, 0, 0
RAD, 77965619, 165, 162, 0, 33, 41, 0, 0
IMU, 77968298, 0.00324293, 0.003341964, -0.0005450271, 0.04174811, -0.02929061, -9.756811, 0, 0, 40.93906, 1, 1
IMU2, 77968298, 0.0103888, -0.004393857, 0.00504916, -0.02162645, -0.120363, -9.690189, 0, 0, 42.125, 1, 1
IMU, 77988052, -0.00170418, -0.001650214, -0.00326069, 0.0291324, 0.1298725, -9.726511, 0, 0, 40.85041, 1, 1
IMU2, 77988052, -0.002695538, -0.01017927, -0.005663911, -0.01290331, 0.1593711, -9.590616, 0, 0, 42.25, 1, 1
IMU, 78007947, 0.0005715343, 0.00214308, 0.004613967, 0.006603234, 0.03203304, -9.722478, 0, 0, 40.93906, 1, 1
IMU2, 78007947, -0.003925114, -0.004861774, 0.01303078, -0.01245792, 0.09463131, -9.682089, 0, 0, 42.25, 1, 1
CURR, 78023047, 87, 1186, 134, 5196, 10.39316, 0
POWR, 78023051, 5.19, 0.05, 1
MAG, 78023128, 242, 37, 447, -69, 55, 19, 0, 0, 0, 1
MAG2, 78023133, 218, 9, 444, -27, 473, -77, 0, 0, 0, 1
BARO, 78023216, -0.1094734, 100971.4, 41.89, -0.2952301
CTUN, 78023227, 0, 0, 87, -0.147696, -0.147696, -0.10, 0.00, 0.00, -19, -19
ATT, 78023303, 0.00, -1.39, 0.00, -3.99, 333.00, 333.00, 0.05, 0.06
EKF1, 78023321, -1.39, -3.99, 333.00, 0.537219, -0.503004, 0.1989354, -0.08754183, -0.4212621, 0.147696, -0.01, -0.06, 0.06
EKF2, 78023328, 41, 5, 0, 0.00, 0.00, 219, -56, 456, 0, 0, 0
EKF3, 78023333, 0.33, -0.46, 0.03, 0.28, -0.20, 0.11, -5, 7, 0, 0.00
EKF4, 78023358, 0.11, 0.06, 0.01, 0.03, 0.04, 0.00, 0.00, 0, 0, 0, 16, 9023, 0
AHR2, 78023372, -0.49, -1.53, 333.55, 7.63, 42.3562179, -71.2991452
POS, 78023400, 42.3562211, -71.2991485, 7.59, -0.147696
RATE, 78023406, -1.269141, -1.269141, 13, -4.768872, -4.768872, 10, 21.79818, 21.79818, 0, -12.47463, -12.47463, 87
RCIN, 78023421, 1480, 1511, 992, 1515, 1147, 992, 992, 992, 0, 0, 0, 0, 0, 0
RCOU, 78023578, 1079, 1079, 1079, 1079, 0, 0, 0, 0, 1000, 1600, 0, 0
VIBE, 78023594, 0.5359663, 1.956561, 0.6702136, 0, 0, 0
IMU, 78028138, -3.731111E-07, -6.707302E-05, 0.006190934, 0.002187575, 0.04316555, -9.7298, 0, 0, 40.98338, 1, 1
IMU2, 78028138, 0.0001460594, -0.01087913, 0.01384693, -0.02986866, 0.005040661, -9.776858, 0, 0, 42.125, 1, 1
IMU, 78048015, -0.001360838, -0.0006171318, -0.001891664, -0.01738049, -0.0954884, -9.763201, 0, 0, 40.98338, 1, 1
IMU2, 78048015, -0.004145293, -0.01022219, 0.001530833, -0.03237757, -0.03689771, -9.846161, 0, 0, 42.25, 1, 1
RAD, 78055568, 165, 162, 0, 35, 41, 0, 0
RAD, 78060676, 165, 162, 0, 35, 41, 0, 0
IMU, 78068287, -0.002716722, 0.002023426, 0.0009360628, 0.01709972, 0.09373689, -9.731312, 0, 0, 40.98338, 1, 1
IMU2, 78068287, 0.002485447, -0.003238416, -0.001046162, -0.004211727, 0.1752673, -9.762941, 0, 0, 42.25, 1, 1
IMU, 78088216, -0.003474168, -0.0008399266, -0.01101682, 0.09295437, 0.08638854, -9.746315, 0, 0, 40.89474, 1, 1
IMU2, 78088216, -0.0003458551, -0.00633554, -0.01209143, 0.07658546, 0.2339067, -9.678026, 0, 0, 42.125, 1, 1
GPS, 78103289, 3, 71967200, 1866, 7, 1.45, 42.3562181, -71.2991453, -0.17, 5.02, 0.04, 72.04, 0.13, 1
GPA, 78103294, 1.90, 1.18, 1.89, 0.42
IMU, 78108444, -0.001203569, 0.00229699, 0.003081633, -0.008351753, 0.05841351, -9.751129, 0, 0, 40.98338, 1, 1
IMU2, 78108444, 0.001002231, -0.004748532, 0.004850633, -0.1309571, 0.1586958, -9.88024, 0, 0, 42.125, 1, 1
CURR, 78123648, 87, 1187, 130, 5196, 10.42964, 0
POWR, 78123653, 5.19, 0.05, 1
MAG, 78123721, 242, 36, 447, -69, 55, 19, 0, 0, 0, 1
MAG2, 78123726, 216, 8, 444, -27, 473, -77, 0, 0, 0, 1
BARO, 78123760, -0.01152351, 100970.3, 41.89, -0.7400038
CTUN, 78123770, 0, 0, 87, -0.1648595, -0.1648595, -0.01, 0.00, 0.00, -20, -20
ATT, 78123882, 0.00, -1.38, 0.00, -3.97, 333.00, 333.00, 0.06, 0.06
EKF1, 78123900, -1.38, -3.97, 333.00, 0.5499274, -0.5113742, 0.2003616, -0.06480981, -0.4422779, 0.1648595, -0.01, -0.07, 0.06
EKF2, 78123907, 41, 5, -1, 0.00, 0.00, 219, -56, 456, 0, 0, 0
EKF3, 78123912, 0.52, -0.44, 0.06, 0.29, -0.23, 0.03, -4, 4, 1, 0.00
EKF4, 78123937, 0.13, 0.07, 0.00, 0.02, 0.02, 0.00, 0.00, 0, 0, 0, 16, 9023, 0
AHR2, 78123948, -0.46, -1.58, 333.56, 7.72, 42.3562181, -71.2991453
POS, 78123976, 42.3562213, -71.2991487, 7.57, -0.1648595
RATE, 78123981, -3.849571, -3.849571, 1, 0.2091605, 0.2091605, 10, -21.32988, -21.32988, 0, -0.3707886, -0.3707886, 87
RCIN, 78123996, 1480, 1511, 992, 1515, 1146, 993, 992, 992, 0, 0, 0, 0, 0, 0
RCOU, 78124073, 1079, 1079, 1079, 1079, 0, 0, 0, 0, 1000, 1600, 0, 0
VIBE, 78124089, 0.6564603, 1.340787, 0.7145579, 0, 0, 0
IMU, 78129163, -0.0002624965, -0.001042846, -0.003341408, 0.00756534, 0.1237923, -9.757276, 0, 0, 40.85041, 1, 1
IMU2, 78129163, 0.001919975, -0.005042906, -0.002031633, -0.06238686, 0.0950761, -9.859117, 0, 0, 42.5, 1, 1
IMU, 78149251, 0.003363491, 5.152982E-05, 0.007562706, -0.02555172, 0.07390305, -9.716969, 0, 0, 40.93906, 1, 1
IMU2, 78149251, -0.004819219, -0.009000288, 0.007665282, 0.02415213, 0.1135222, -9.754862, 0, 0, 42.375, 1, 1
IMU, 78169250, 0.001947431, -0.0006698995, 0.003165016, 0.02971456, 0.08434891, -9.726502, 0, 0, 40.93906, 1, 1
IMU2, 78169250, 0.007803869, -0.003582135, 0.008372462, -0.01057749, 0.08012605, -9.760701, 0, 0, 42.25, 1, 1
IMU, 78189225, 0.00554895, 0.00295008, -0.005285649, 0.06048602, -0.0007415144, -9.720802, 0, 0, 40.93906, 1, 1
IMU2, 78189225, 0.01486234, -0.00941426, 0.003505534, -0.02128447, 0.09952794, -9.775904, 0, 0, 42.125, 1, 1
IMU, 78209247, -0.008962383, -2.799847E-06, 0.0004195887, 0.006810938, 0.01546436, -9.69513, 0, 0, 40.98338, 1, 1
IMU2, 78209247, -0.005380086, -0.0009995175, -0.003713174, -0.07004212, 0.05208908, -9.729621, 0, 0, 42.375, 1, 1
CURR, 78224449, 87, 1187, 133, 5207, 10.46697, 0
POWR, 78224453, 5.20, 0.05, 1
MAG, 78224556, 242, 36, 447, -69, 55, 19, 0, 0, 0, 1
MAG2, 78224561, 216, 7, 446, -27, 473, -77, 0, 0, 0, 1
BARO, 78224599, -0.06914107, 100971, 41.90, -0.5580603
CTUN, 78224609, 0, 0, 87, -0.1764106, -0.1764106, -0.06, 0.00, 0.00, -20, -20
ATT, 78224691, 0.00, -1.37, 0.00, -3.94, 333.01, 333.01, 0.06, 0.06
EKF1, 78224710, -1.37, -3.94, 333.01, 0.5560765, -0.5208046, 0.2029183, -0.04617532, -0.4631024, 0.1764106, -0.01, -0.07, 0.05
EKF2, 78224717, 41, 5, 0, 0.00, 0.00, 219, -56, 456, 0, 0, 0
EKF3, 78224722, 0.52, -0.44, 0.06, 0.29, -0.23, 0.14, -3, 5, 1, 0.00
EKF4, 78224746, 0.13, 0.07, 0.01, 0.02, 0.03, 0.00, 0.00, 0, 0, 0, 16, 9023, 0
AHR2, 78224757, -0.49, -1.55, 333.58, 7.67, 42.3562181, -71.2991453
POS, 78224785, 42.3562214, -71.299149, 7.56, -0.1764106
RATE, 78224790, -8.455443, -8.455443, -8, 7.933868, 7.933868, 4, -42.31037, -42.31037, 0, -8.789253, -8.789253, 87
RCIN, 78224805, 1479, 1511, 992, 1515, 1147, 992, 992, 992, 0, 0, 0, 0, 0, 0
RCOU, 78224873, 1079, 1079, 1079, 1079, 0, 0, 0, 0, 1000, 1600, 0, 0
VIBE, 78224889, 0.7401451, 1.067631, 0.8696848, 0, 0, 0
IMU, 78229380, -0.002835795, -0.003362647, -0.009230875, 0.04881363, -0.03147417, -9.748442, 0, 0, 40.89474, 1, 1
IMU2, 78229380, -0.007068131, -0.004287059, -0.008074359, -0.02650865, -0.01582002, -9.692566, 0, 0, 42.375, 1, 1
IMU, 78249389, -0.0008043654, 0.002215701, 0.005685277, 0.02345628, 0.1048497, -9.736868, 0, 0, 40.98338, 1, 1
IMU2, 78249389, 0.004801602, -0.006661239, 0.002586474, -0.04465958, 0.1854619, -9.769358, 0, 0, 42.375, 1, 1
IMU, 78269385, 0.003278041, 0.002751459, -0.0002756752, 0.05704745, 0.06642385, -9.739081, 0, 0, 40.98338, 1, 1
IMU2, 78269385, 0.005589652, -0.001710141, -0.001390778, 0.03780401, 0.1025684, -9.763009, 0, 0, 42.375, 1, 1
IMU, 78289091, -0.005963526, 0.002097725, 0.01240214, -0.02272048, 0.03240799, -9.74275, 0, 0, 40.89474, 1, 1
IMU2, 78289091, -0.002840221, -0.007957289, 0.01472707, -0.1013713, 0.08021086, -9.826901, 0, 0, 42.375, 1, 1
GPS, 78304219, 3, 71967400, 1866, 7, 1.45, 42.3562182, -71.2991452, -0.19, 5.10, 0.13, 72.04, 0.16, 1
GPA, 78304223, 1.90, 1.17, 1.89, 0.39
IMU, 78310161, 0.002061683, 0.001772703, -0.003221971, -0.00399516, 0.01231402, -9.75319, 0, 0, 40.93906, 1, 1
IMU2, 78310161, -0.002001858, -0.002160343, -2.678564E-05, -0.01902698, 0.08402169, -9.660313, 0, 0, 42.375, 1, 1
CURR, 78324406, 87, 1184, 131, 5209, 10.50336, 0
POWR, 78324440, 5.20, 0.05, 1
MAG, 78324471, 246, 36, 448, -69, 55, 19, 0, 0, 0, 1
MAG2, 78324475, 216, 8, 444, -27, 473, -77, 0, 0, 0, 1
BARO, 78324511, 0.005761756, 100970.1, 41.90, -0.1622535
CTUN, 78324522, 0, 0, 87, -0.1901654, -0.1901654, 0.00, 0.00, 0.00, -20, -20
ATT, 78324629, 0.00, -1.36, 0.00, -3.91, 333.03, 333.03, 0.06, 0.05
EKF1, 78324647, -1.36, -3.91, 333.03, 0.567044, -0.5247745, 0.2048746, -0.02654303, -0.4834433, 0.1901654, -0.01, -0.07, 0.05
EKF2, 78324653, 42, 5, 0, 0.00, 0.00, 219, -56, 456, 0, 0, 0
EKF3, 78324658, 0.41, -0.51, 0.04, 0.32, -0.28, 0.10, -4, 5, 0, 0.00
EKF4, 78324683, 0.13, 0.08, 0.00, 0.03, 0.03, 0.00, 0.00, 0, 0, 0, 16, 9023, 0
AHR2, 78324697, -0.50, -1.52, 333.60, 7.74, 42.3562182, -71.2991452
POS, 78324725, 42.3562216, -71.2991492, 7.54, -0.1901654
RATE, 78324730, 3.798148, 3.798148, 20, -0.02856273, -0.02856273, 3, -12.57182, -12.57182, 1, -5.301094, -5.301094, 87
RCIN, 78324745, 1479, 1511, 992, 1516, 1146, 992, 992, 992, 0, 0, 0, 0, 0, 0
RCOU, 78324849, 1079, 1079, 1079, 1079, 0, 0, 0, 0, 1000, 1600, 0, 0
VIBE, 78324866, 0.617597, 1.116754, 0.7687007, 0, 0, 0
IMU, 78329812, 0.0003779962, -0.002019212, -0.006248242, 0.08790037, 0.04806431, -9.71133, 0, 0, 40.93906, 1, 1
IMU2, 78329812, 0.001551327, -0.005124461, -0.0009255207, -0.06292242, 0.07707624, -9.7663, 0, 0, 42.375, 1, 1
IMU, 78349818, -0.003171063, 0.0003916578, -0.00439303, -0.05783079, 0.06968769, -9.692335, 0, 0, 40.93906, 1, 1
IMU2, 78349818, -0.00155174, 0.002524042, -0.001682115, -0.06426371, 0.1638843, -9.701916, 0, 0, 42.125, 1, 1
IMU, 78370073, 0.003206118, 0.0006480959, -0.003326215, 0.07033968, 0.08367464, -9.789644, 0, 0, 40.93906, 1, 1
IMU2, 78370073, 0.006269138, -0.007122492, -0.001399147, 0.03536597, 0.09919061, -9.813839, 0, 0, 42.375, 1, 1
IMU, 78389704, -9.847007E-05, 0.001901946, 0.008959172, -0.02500745, 0.1212632, -9.737288, 0, 0, 40.89474, 1, 1
IMU2, 78389704, 0.003420121, -0.006149126, 0.009746786, -0.03796406, 0.168941, -9.690111, 0, 0, 42.375, 1, 1
IMU, 78409730, 0.00149657, 0.001353393, 0.001918629, 0.05080326, -0.08945736, -9.775799, 0, 0, 40.89474, 1, 1
IMU2, 78409730, -0.006907988, -0.00762561, 0.0008404342, 0.01155447, -0.09998168, -9.681293, 0, 0, 42.375, 1, 1
CURR, 78424812, 87, 1181, 134, 5167, 10.54084, 0
POWR, 78424816, 5.16, 0.05, 1
MAG, 78424858, 242, 36, 447, -69, 55, 19, 0, 0, 0, 1
MAG2, 78424862, 217, 8, 445, -27, 473, -77, 0, 0, 0, 1
BARO, 78424896, -0.1613292, 100972, 41.90, 0.03216232
CTUN, 78424907, 0, 0, 87, -0.2003665, -0.2003665, -0.16, 0.00, 0.00, -20, -20
ATT, 78424983, 0.00, -1.34, 0.00, -3.88, 333.06, 333.06, 0.06, 0.05
EKF1, 78425001, -1.34, -3.88, 333.06, 0.5749962, -0.5313028, 0.2080261, -0.004486577, -0.4996016, 0.2003665, -0.01, -0.07, 0.05
EKF2, 78425008, 42, 5, 0, 0.00, 0.00, 219, -56, 456, 0, 0, 0
EKF3, 78425013, 0.41, -0.51, 0.04, 0.32, -0.28, 0.18, -8, 5, 0, 0.00
EKF4, 78425046, 0.13, 0.08, 0.01, 0.05, 0.03, 0.00, 0.00, 0, 0, 0, 16, 9023, 0
AHR2, 78425057, -0.46, -1.56, 333.63, 7.57, 42.3562182, -71.2991452
POS, 78425084, 42.3562218, -71.2991494, 7.53, -0.2003665
RATE, 78425090, -5.577709, -5.577709, -36, -7.305519, -7.305519, 0, 51.70065, 51.70065, -2, -3.059864, -3.059864, 87
RCIN, 78425105, 1480, 1511, 992, 1515, 1147, 992, 992, 992, 0, 0, 0, 0, 0, 0
RCOU, 78425258, 1079, 1079, 1079, 1079, 0, 0, 0, 0, 1000, 1600, 0, 0
VIBE, 78425274, 0.5417389, 1.29345, 0.6602927, 0, 0, 0
IMU, 78429610, -0.002011326, 0.0005597235, 0.004495892, 0.007032485, -0.01640091, -9.746902, 0, 0, 40.89474, 1, 1
IMU2, 78429610, -0.003572206, -0.01158897, 0.01213144, -0.02146388, -0.05037027, -9.804147, 0, 0, 42.25, 1, 1
IMU, 78449692, -0.003713759, 0.004378323, -0.00505983, 0.0009382179, 0.003991614, -9.748215, 0, 0, 40.89474, 1, 1
IMU2, 78449692, -0.002292422, -0.008912948, -0.002721868, -0.05884849, 0.01862075, -9.768327, 0, 0, 42.25, 1, 1
IMU, 78469703, 0.002727722, 0.003275348, -0.001919709, 0.05248598, 0.1111591, -9.740294, 0, 0, 40.98338, 1, 1
IMU2, 78469703, -0.006134525, -0.005621641, 0.005708763, 0.09409642, 0.2364933, -9.743822, 0, 0, 42.25, 1, 1
IMU, 78489697, -0.002443634, 0.002825935, -0.0008614561, -0.03380389, 0.08684096, -9.693712, 0, 0, 40.89474, 1, 1
IMU2, 78489697, 0.007259311, -0.000382542, -0.0006969699, -0.02564395, 0.1604126, -9.685936, 0, 0, 42.25, 1, 1
GPS, 78504997, 3, 71967600, 1866, 7, 1.45, 42.3562184, -71.2991452, -0.22, 5.04, 0.07, 72.04, 0, 1
GPA, 78505002, 1.90, 1.17, 1.90, 0.48
IMU, 78510384, 0.006879, 0.0002083836, 0.004025933, 0.106589, 0.1298156, -9.792667, 0, 0, 40.93906, 1, 1
IMU2, 78510384, 0.011019, -0.0132439, 0.007441142, 0.08722771, 0.1477375, -9.756898, 0, 0, 42.25, 1, 1
CURR, 78525493, 87, 1191, 130, 5191, 10.57736, 0
POWR, 78525498, 5.19, 0.05, 1
MAG, 78525566, 245, 35, 448, -69, 55, 19, 0, 0, 0, 1
MAG2, 78525570, 218, 8, 444, -27, 473, -77, 0, 0, 0, 1
BARO, 78525607, 0.2160658, 100967.9, 41.90, 0.0329836
CTUN, 78525617, 0, 0, 87, -0.2179761, -0.2179761, 0.21, 0.00, 0.00, -21, -21
ATT, 78525694, 0.00, -1.32, 0.00, -3.86, 333.07, 333.07, 0.05, 0.05
EKF1, 78525712, -1.32, -3.86, 333.07, 0.5894179, -0.5308818, 0.2128972, 0.01825135, -0.516064, 0.2179761, -0.01, -0.08, 0.05
EKF2, 78525719, 44, 5, 0, 0.00, 0.00, 219, -56, 456, 0, 0, 0
EKF3, 78525725, 0.50, -0.53, 0.20, 0.34, -0.32, 0.03, -5, 5, 0, 0.00
EKF4, 78525873, 0.15, 0.09, 0.00, 0.03, 0.03, 0.00, 0.00, 0, 0, 0, 16, 9023, 0
AHR2, 78525884, -0.43, -1.59, 333.64, 7.95, 42.3562184, -71.2991452
POS, 78525973, 42.3562219, -71.2991496, 7.52, -0.2179761
RATE, 78525978, -13.552, -13.552, -1, -15.47267, -15.47267, 6, 1.482949, 1.482949, 0, -7.550049, -7.550049, 87
RCIN, 78525993, 1479, 1511, 992, 1515, 1146, 993, 992, 992, 0, 0, 0, 0, 0, 0
RCOU, 78526309, 1079, 1079, 1079, 1079, 0, 0, 0, 0, 1000, 1600, 0, 0
VIBE, 78526325, 0.507202, 1.45616, 0.6938704, 0, 0, 0
IMU, 78530595, 0.0002744213, -0.002111772, 0.006934153, -0.02452173, 0.1397821, -9.743807, 0, 0, 40.93906, 1, 1
IMU2, 78530595, 0.004909361, -0.006321342, 0.004644658, -0.001912301, 0.1204106, -9.689711, 0, 0, 42.25, 1, 1
IMU, 78550382, -0.008086549, -0.001125781, -0.0007365675, 0.02954818, -0.1053943, -9.760048, 0, 0, 40.93906, 1, 1
IMU2, 78550382, 0.009955438, -0.003822829, 0.005437812, 0.04939723, -0.06642248, -9.629335, 0, 0, 42.25, 1, 1
IMU, 78570854, -0.003459268, 0.002527254, -1.480037E-05, -0.01452941, -0.01825641, -9.745868, 0, 0, 40.93906, 1, 1
IMU2, 78570854, 0.003849179, -0.008404038, 0.001986677, -0.01863869, -0.05023851, -9.803848, 0, 0, 42.375, 1, 1
IMU, 78590492, -0.003214102, 0.002178073, -0.00704711, -0.02847904, -0.05532444, -9.724732, 0, 0, 40.89474, 1, 1
IMU2, 78590492, -0.00954622, -0.003565416, 0.00072955, -0.09507909, 0.04072307, -9.752293, 0, 0, 42.25, 1, 1
IMU, 78610477, -0.004220266, -0.0008187597, 0.002420627, 0.06450555, 0.02238221, -9.789095, 0, 0, 41.07202, 1, 1
IMU2, 78610477, -0.01532714, -0.009744093, 0.009792964, -0.01200569, -0.1536404, -9.754899, 0, 0, 42.25, 1, 1
CURR, 78625475, 87, 1185, 135, 5175, 10.61506, 0
POWR, 78625479, 5.17, 0.05, 1
MAG, 78625511, 243, 36, 448, -69, 55, 19, 0, 0, 0, 1
MAG2, 78625515, 217, 7, 445, -27, 473, -77, 0, 0, 0, 1
BARO, 78625556, -0.06914107, 100971, 41.90, 0.1515894
CTUN, 78625566, 0, 0, 87, -0.2155362, -0.2155362, -0.06, 0.00, 0.00, -21, -21
ATT, 78625673, 0.00, -1.32, 0.00, -3.83, 333.09, 333.09, 0.05, 0.06
EKF1, 78625691, -1.32, -3.83, 333.09, 0.5931207, -0.5360404, 0.2126034, 0.03837751, -0.5301211, 0.2155362, -0.01, -0.08, 0.05
EKF2, 78625702, 44, 5, 0, 0.00, 0.00, 219, -56, 456, 0, 0, 0
EKF3, 78625743, 0.50, -0.53, 0.20, 0.34, -0.32, 0.42, -7, 6, 0, 0.00
EKF4, 78625768, 0.15, 0.09, 0.04, 0.05, 0.04, 0.00, 0.00, 0, 0, 0, 16, 9023, 0
AHR2, 78625779, -0.44, -1.57, 333.67, 7.67, 42.3562184, -71.2991452
POS, 78625807, 42.3562221, -71.2991498, 7.52, -0.2155362
RATE, 78625812, -68.46783, -68.46783, 8, 2.647222, 2.647222, -14, 12.98396, 12.98396, 2, -7.728386, -7.728386, 87
RCIN, 78625827, 1480, 1510, 993, 1515, 1146, 993, 992, 992, 0, 0, 0, 0, 0, 0
RCOU, 78625900, 1079, 1079, 1079, 1079, 0, 0, 0, 0, 1000, 1600, 0, 0
VIBE, 78625970, 0.5645353, 1.939679, 0.7114023, 0, 0, 0
IMU, 78630666, -0.0005647131, -0.001307988, 0.0002069781, -0.02533133, 0.02932131, -9.698859, 0, 0, 40.89474, 1, 1
IMU2, 78630666, -0.01111145, -0.007511942, 0.01034481, -0.04545165, 0.06413934, -9.708933, 0, 0, 42.25, 1, 1
IMU, 78650450, 0.001879189, 0.002533753, -0.001463513, 0.1553209, 0.09503531, -9.79845, 0, 0, 40.89474, 1, 1
IMU2, 78650450, 0.002277807, -0.002793503, 0.003182286, 0.1099998, 0.3341189, -9.868406, 0, 0, 42.25, 1, 1
IMU, 78670596, 0.004882395, 0.0003620171, -0.004227858, -0.004601522, 0.3103231, -9.717005, 0, 0, 40.89474, 1, 1
IMU2, 78670596, 0.006163112, -0.003249477, -0.0009839591, -0.06282218, 0.434083, -9.760935, 0, 0, 42.375, 1, 1
IMU, 78690434, -0.001602189, -0.000182401, 0.002340954, 0.05119121, 0.05240538, -9.732077, 0, 0, 40.89474, 1, 1
IMU2, 78690434, 0.005228308, -0.006142803, 0.004017488, -0.03283481, -0.07103541, -9.673502, 0, 0, 42.25, 1, 1
MODE, 78703293, Guided, 4
GPS, 78705577, 3, 71967800, 1866, 7, 1.45, 42.3562186, -71.2991454, -0.23, 4.98, 0.08, 72.04, -0.03, 1
GPA, 78705581, 1.90, 1.17, 1.89, 0.34
EV, 78711278, 15
IMU, 78711370, -0.002336979, 0.0007366497, 0.003950124, 0.009730553, -0.1224254, -9.778239, 0, 0, 40.85041, 1, 1
IMU2, 78711370, -0.0002242893, -0.004681172, 0.01096205, -0.1022592, -0.1947116, -9.823383, 0, 0, 42.25, 1, 1
CURR, 78726511, 129, 1182, 129, 5193, 10.6515, 0
POWR, 78726516, 5.19, 0.05, 1
MAG, 78726547, 242, 38, 447, -69, 55, 19, 0, 0, 0, 1
MAG2, 78726551, 218, 9, 444, -27, 473, -77, 0, 0, 0, 1
BARO, 78726625, 0.03457053, 100969.9, 41.90, 0.341298
CTUN, 78726635, 0, 0, 129, -0.4350351, -0.2260721, 0.03, 0.00, 0.00, -20, -21
ATT, 78726776, -1.34, -1.32, -3.79, -3.80, 333.11, 333.12, 0.05, 0.05
EKF1, 78726799, -1.32, -3.80, 333.12, 0.5941089, -0.5461689, 0.2123198, 0.05915511, -0.5451047, 0.2260722, -0.01, -0.08, 0.05
EKF2, 78726806, 44, 5, 0, 0.00, 0.00, 219, -56, 456, 0, 0, 0
EKF3, 78726811, 0.53, -0.46, 0.24, 0.36, -0.34, 0.14, -5, 5, 0, 0.00
EKF4, 78726835, 0.14, 0.10, 0.01, 0.03, 0.03, 0.00, 0.00, 0, 0, 0, 16, 9023, 0
AHR2, 78726846, -0.46, -1.57, 333.71, 7.77, 42.3562186, -71.2991454
POS, 78726906, 42.3562223, -71.29915, 7.51, -0.2260722
RATE, 78726912, -23.23921, 15.5083, -33, 11.52359, -6.53458, -1, -5.847703, 37.0388, -9, 10.35339, -9.798717, 129
RCIN, 78726927, 1481, 1510, 992, 1516, 1146, 992, 993, 991, 0, 0, 0, 0, 0, 0
RCOU, 78727000, 1153, 1123, 1123, 1153, 0, 0, 0, 0, 1000, 1600, 0, 0
NTUN, 78727017, 65.14157, -108.4712, 5.915511, -54.51048, 59.46087, -54.15807, 59.41089, -54.61689, 47.61135, -50.03089
VIBE, 78727022, 0.6763098, 2.10184, 0.7288384, 0, 0, 0
IMU, 78731698, -0.004551994, 0.003517272, -0.002172997, -0.04340169, -0.06427348, -9.717051, 0, 0, 40.93906, 1, 1
IMU2, 78731698, -0.01043301, -0.00432269, 0.003847448, -0.1004782, -0.1211188, -9.709274, 0, 0, 42.25, 1, 1
IMU, 78751293, 0.0004613722, 0.0005426449, 0.005782139, -0.00998557, 0.05370769, -9.687754, 0, 0, 40.93906, 1, 1
IMU2, 78751293, 1.579348E-06, -0.00689461, 0.007357567, 0.04650061, 0.1861263, -9.660883, 0, 0, 42.25, 1, 1
IMU, 78772274, -0.004024252, -0.004645623, -0.008173874, 0.02944765, 0.05751836, -9.704793, 0, 0, 40.8061, 1, 1
IMU2, 78772274, -0.005113698, -0.007292771, -0.002101684, -0.01352795, 0.1992932, -9.612167, 0, 0, 42.125, 1, 1
IMU, 78791311, 0.003675722, 0.002043964, -0.006689397, 0.04707248, 0.1762668, -9.787535, 0, 0, 40.93906, 1, 1
IMU2, 78791311, -0.0008929256, -0.003131428, -0.005688058, 0.002577675, 0.2495131, -9.796171, 0, 0, 42.25, 1, 1
IMU, 78811277, 0.01000504, 0.003013129, 0.001913987, 0.01985938, 0.2221834, -9.764788, 0, 0, 40.98338, 1, 1
IMU2, 78811277, 0.006608537, -0.00045774, -0.001922064, 0.08616294, 0.2029187, -9.771851, 0, 0, 42.25, 1, 1
CURR, 78826387, 129, 1184, 202, 5164, 10.70762, 0
POWR, 78826391, 5.16, 0.05, 1
MAG, 78826425, 239, 35, 453, -69, 55, 19, 0, 0, 0, 1
MAG2, 78826430, 219, 5, 443, -27, 473, -77, 0, 0, 0, 1
BARO, 78826466, -0.1094734, 100971.4, 41.90, 0.1665971
CTUN, 78826477, 0, 0, 129, -0.4225471, -0.2312909, -0.10, 0.00, 0.00, -19, -21
DU32, 78826700, 7, 386552
ATT, 78826916, -1.11, -1.29, -2.81, -3.76, 333.11, 333.12, 0.05, 0.05
EKF1, 78826934, -1.29, -3.76, 333.12, 0.6052914, -0.5437272, 0.2146693, 0.07820048, -0.5608641, 0.2312909, -0.01, -0.08, 0.05
EKF2, 78826941, 44, 5, 0, 0.00, 0.00, 219, -56, 456, 0, 0, 0
EKF3, 78826945, 0.53, -0.46, 0.24, 0.36, -0.34, 0.25, -5, 3, 1, 0.00
EKF4, 78826973, 0.14, 0.10, 0.02, 0.03, 0.02, 0.00, 0.00, 0, 0, 0, 16, 9023, 0
AHR2, 78826983, -0.46, -1.57, 333.71, 7.63, 42.3562186, -71.2991454
POS, 78827016, 42.3562225, -71.2991502, 7.5, -0.2312909
RATE, 78827021, 202.1581, 22.46465, 30, 1068.929, 4.189459, 265, 6.923029, 23.88888, 0, 13.72023, -11.08732, 129
RCIN, 78827044, 1480, 1510, 992, 1516, 1146, 992, 993, 992, 0, 0, 0, 0, 0, 0
RCOU, 78827112, 1180, 1123, 1172, 1133, 0, 0, 0, 0, 1000, 1600, 0, 0
NTUN, 78827142, 65.0051, -108.3469, 7.820048, -56.08641, 57.36398, -52.40471, 60.52914, -54.37272, 23.88865, -30.05127
VIBE, 78827146, 0.6072153, 1.618013, 0.9003494, 0, 0, 0
IMU, 78831919, -0.0001131202, -0.001309594, 0.004118801, 0.02412965, 0.05579624, -9.660275, 0, 0, 40.98338, 1, 1
IMU2, 78831919, 0.00175794, -0.003871365, 0.003907606, 0.0487535, 0.03745519, -9.659258, 0, 0, 42.25, 1, 1
IMU, 78851998, -0.005193729, -0.003197246, 0.01192182, 0.1202442, -0.1450991, -9.750667, 0, 0, 40.98338, 1, 1
IMU2, 78851998, 0.009448215, -0.005090496, 0.01125204, 0.09277108, -0.0602727, -9.74286, 0, 0, 42.25, 1, 1
IMU, 78871851, 0.003425612, 0.007299349, 0.00276294, 0.06208117, 0.0636488, -9.662984, 0, 0, 40.89474, 1, 1
IMU2, 78871851, -0.005564055, 0.008224891, 0.003926178, 0.05382256, 0.1606548, -9.746237, 0, 0, 42.125, 1, 1
IMU, 78891951, 0.0001765543, 0.009003602, -0.003581828, -0.1452542, 0.001162822, -9.792673, 0, 0, 40.98338, 1, 1
IMU2, 78891951, 0.007403014, -0.006899085, -0.001964419, -0.2131456, 0.04555883, -9.682642, 0, 0, 42.375, 1, 1
GPS, 78907011, 3, 71968000, 1866, 7, 1.45, 42.3562187, -71.2991455, -0.25, 5.02, 0.09, 72.04, 0.08, 1
GPA, 78907015, 1.90, 1.17, 1.89, 0.36
IMU, 78912890, 0.003557578, -0.006696244, -0.001881856, 0.05326181, 0.07199756, -9.74806, 0, 0, 40.85041, 1, 1
IMU2, 78912890, -0.004197255, -0.02490273, -0.0004845649, -0.08524597, 0.1409284, -9.772431, 0, 0, 42.375, 1, 1
CURR, 78927716, 129, 1184, 253, 5190, 10.77912, 0
POWR, 78927721, 5.19, 0.05, 1
MAG, 78927756, 243, 37, 450, -69, 55, 19, 0, 0, 0, 1
MAG2, 78927761, 218, 7, 443, -27, 473, -77, 0, 0, 0, 1
BARO, 78927797, 0.03457053, 100969.9, 41.90, -0.2087203
CTUN, 78927849, 0, 0, 129, -0.3897011, -0.2435313, 0.03, 0.00, 0.00, -14, -21
ATT, 78927966, -0.94, -1.29, -2.10, -3.72, 333.11, 333.14, 0.05, 0.05
EKF1, 78928066, -1.29, -3.72, 333.14, 0.609637, -0.5452366, 0.2158167, 0.0978514, -0.5776522, 0.2435313, -0.01, -0.09, 0.04
EKF2, 78928072, 43, 5, 0, 0.00, 0.00, 219, -56, 456, 0, 0, 0
EKF3, 78928077, 0.58, -0.43, 0.13, 0.39, -0.36, 0.11, -3, 6, -4, 0.00
EKF4, 78928136, 0.14, 0.10, 0.01, 0.02, 0.04, 0.02, 0.00, 0, 0, 0, 16, 9023, 0
AHR2, 78928147, -0.49, -1.57, 333.73, 7.77, 42.3562187, -71.2991455
POS, 78928177, 42.3562226, -71.2991504, 7.49, -0.2435313
RATE, 78928183, 391.159, 5.148262, 83, 1823.349, 33.07819, 329, 4.061664, -14.10464, 6, 42.95004, -12.42666, 129
RCIN, 78928198, 1480, 1511, 992, 1516, 1146, 992, 992, 992, 0, 0, 0, 0, 0, 0
RCOU, 78928643, 1241, 1155, 1264, 1123, 0, 0, 0, 0, 1000, 1600, 0, 0
NTUN, 78928661, 64.64617, -108.02, 9.78514, -57.76522, 55.02104, -50.40913, 60.9637, -54.52367, 18.47393, -24.51828
VIBE, 78928665, 0.6921281, 1.48594, 1.087164, 0, 0, 0
IMU, 78933352, -0.002200809, -0.01358377, -0.003851844, 0.1339657, 0.1363184, -9.657407, 0, 0, 41.0277, 1, 1
IMU2, 78933352, -0.005720064, -0.01485949, 0.003714533, 0.1071946, 0.2615354, -9.8539, 0, 0, 42.375, 1, 1
