FMT, 128, 89, FMT, BBnNZ, Type,Length,Name,Format,Columns
FMT, 129, 31, PARM, QNf, TimeUS,Name,Value
FMT, 130, 50, GPS, QBIHBcLLeeEefB, TimeUS,Status,GMS,GWk,NSats,HDop,Lat,Lng,RAlt,Alt,Spd,GCrs,VZ,U
FMT, 131, 50, GPS2, QBIHBcLLeeEefB, TimeUS,Status,GMS,GWk,NSats,HDop,Lat,Lng,RAlt,Alt,Spd,GCrs,VZ,U
FMT, 195, 19, GPA, QCCCC, TimeUS,VDop,HAcc,VAcc,SAcc
FMT, 196, 19, GPA2, QCCCC, TimeUS,VDop,HAcc,VAcc,SAcc
FMT, 132, 49, IMU, QffffffIIfBB, TimeUS,GyrX,GyrY,GyrZ,AccX,AccY,AccZ,ErrG,ErrA,Temp,GyHlt,AcHlt
FMT, 133, 75, MSG, QZ, TimeUS,Message
FMT, 134, 39, RCIN, Qhhhhhhhhhhhhhh, TimeUS,C1,C2,C3,C4,C5,C6,C7,C8,C9,C10,C11,C12,C13,C14
FMT, 135, 35, RCOU, Qhhhhhhhhhhhh, TimeUS,Ch1,Ch2,Ch3,Ch4,Ch5,Ch6,Ch7,Ch8,Ch9,Ch10,Ch11,Ch12
FMT, 136, 15, RSSI, Qf, TimeUS,RXRSSI
FMT, 138, 25, BARO, Qffcf, TimeUS,Alt,Press,Temp,CRt
FMT, 139, 17, POWR, QCCH, TimeUS,Vcc,VServo,Flags
FMT, 146, 45, CMD, QHHHfffffff, TimeUS,CTot,CNum,CId,Prm1,Prm2,Prm3,Prm4,Lat,Lng,Alt
FMT, 147, 20, RAD, QBBBBBHH, TimeUS,RSSI,RemRSSI,TxBuf,Noise,RemNoise,RxErrors,Fixed
FMT, 149, 39, CAM, QIHLLeeccC, TimeUS,GPSTime,GPSWeek,Lat,Lng,Alt,RelAlt,Roll,Pitch,Yaw
FMT, 166, 29, ARSP, Qffcff, TimeUS,Airspeed,DiffPress,Temp,RawPress,Offset
FMT, 168, 25, CURR, QhhhHfh, TimeUS,Throttle,Volt,Curr,Vcc,CurrTot,Volt2
FMT, 167, 27, ATT, QccccCCCC, TimeUS,DesRoll,Roll,DesPitch,Pitch,DesYaw,Yaw,ErrRP,ErrYaw
FMT, 169, 30, MAG, QhhhhhhhhhB, TimeUS,MagX,MagY,MagZ,OfsX,OfsY,OfsZ,MOfsX,MOfsY,MOfsZ,Health
FMT, 172, 13, MODE, QMB, TimeUS,Mode,ModeNum
FMT, 197, 15, RFND, QCC, TimeUS,Dist1,Dist2
FMT, 137, 49, IMU2, QffffffIIfBB, TimeUS,GyrX,GyrY,GyrZ,AccX,AccY,AccZ,ErrG,ErrA,Temp,GyHlt,AcHlt
FMT, 150, 49, IMU3, QffffffIIfBB, TimeUS,GyrX,GyrY,GyrZ,AccX,AccY,AccZ,ErrG,ErrA,Temp,GyHlt,AcHlt
FMT, 140, 29, AHR2, QccCfLL, TimeUS,Roll,Pitch,Yaw,Alt,Lat,Lng
FMT, 183, 27, POS, QLLff, TimeUS,Lat,Lng,Alt,RelAlt
FMT, 141, 29, SIM, QccCfLL, TimeUS,Roll,Pitch,Yaw,Alt,Lat,Lng
FMT, 142, 47, EKF1, QccCffffffccc, TimeUS,Roll,Pitch,Yaw,VN,VE,VD,PN,PE,PD,GX,GY,GZ
FMT, 143, 30, EKF2, Qbbbcchhhhhh, TimeUS,Ratio,AZ1bias,AZ2bias,VWN,VWE,MN,ME,MD,MX,MY,MZ
FMT, 144, 31, EKF3, Qcccccchhhc, TimeUS,IVN,IVE,IVD,IPN,IPE,IPD,IMX,IMY,IMZ,IVT
FMT, 145, 33, EKF4, QcccccccbbBBHH, TimeUS,SV,SP,SH,SMX,SMY,SMZ,SVT,OFN,EFE,FS,TS,SS,GPS
FMT, 164, 28, EKF5, QBhhhcccCC, TimeUS,normInnov,FIX,FIY,AFI,HAGL,offset,RI,meaRng,errHAGL
FMT, 199, 47, NKF1, QccCffffffccc, TimeUS,Roll,Pitch,Yaw,VN,VE,VD,PN,PE,PD,GX,GY,GZ
FMT, 200, 34, NKF2, Qbccccchhhhhh, TimeUS,AZbias,GSX,GSY,GSZ,VWN,VWE,MN,ME,MD,MX,MY,MZ
FMT, 201, 33, NKF3, Qcccccchhhcc, TimeUS,IVN,IVE,IVD,IPN,IPE,IPD,IMX,IMY,IMZ,IYAW,IVT
FMT, 202, 33, NKF4, QcccccfbbBBHH, TimeUS,SV,SP,SH,SM,SVT,errRP,OFN,EFE,FS,TS,SS,GPS
FMT, 203, 28, NKF5, QBhhhcccCC, TimeUS,normInnov,FIX,FIY,AFI,HAGL,offset,RI,meaRng,errHAGL
FMT, 151, 34, TERR, QBLLHffHH, TimeUS,Status,Lat,Lng,Spacing,TerrH,CHeight,Pending,Loaded
FMT, 152, 18, UBX1, QBHBBH, TimeUS,Instance,noisePerMS,jamInd,aPower,agcCnt
FMT, 153, 16, UBX2, QBbBbB, TimeUS,Instance,ofsI,magI,ofsQ,magQ
FMT, 154, 18, UBY1, QBHBBH, TimeUS,Instance,noisePerMS,jamInd,aPower,agcCnt
FMT, 155, 16, UBY2, QBbBbB, TimeUS,Instance,ofsI,magI,ofsQ,magQ
FMT, 173, 42, GRAW, QIHBBddfBbB, TimeUS,WkMS,Week,numSV,sv,cpMes,prMes,doMes,mesQI,cno,lli
FMT, 174, 24, GRXH, QdHbBB, TimeUS,rcvTime,week,leapS,numMeas,recStat
FMT, 175, 41, GRXS, QddfBBBHBBBBB, TimeUS,prMes,cpMes,doMes,gnss,sv,freq,lock,cno,prD,cpD,doD,trk
FMT, 176, 63, SBFE, QIHBBdddfffff, TimeUS,TOW,WN,Mode,Err,Lat,Long,Height,Undul,Vn,Ve,Vu,COG
FMT, 156, 19, ESC1, Qcccc, TimeUS,RPM,Volt,Curr,Temp
FMT, 157, 19, ESC2, Qcccc, TimeUS,RPM,Volt,Curr,Temp
FMT, 158, 19, ESC3, Qcccc, TimeUS,RPM,Volt,Curr,Temp
FMT, 159, 19, ESC4, Qcccc, TimeUS,RPM,Volt,Curr,Temp
FMT, 160, 19, ESC5, Qcccc, TimeUS,RPM,Volt,Curr,Temp
FMT, 161, 19, ESC6, Qcccc, TimeUS,RPM,Volt,Curr,Temp
FMT, 162, 19, ESC7, Qcccc, TimeUS,RPM,Volt,Curr,Temp
FMT, 163, 19, ESC8, Qcccc, TimeUS,RPM,Volt,Curr,Temp
FMT, 170, 30, MAG2, QhhhhhhhhhB, TimeUS,MagX,MagY,MagZ,OfsX,OfsY,OfsZ,MOfsX,MOfsY,MOfsZ,Health
FMT, 171, 30, MAG3, QhhhhhhhhhB, TimeUS,MagX,MagY,MagZ,OfsX,OfsY,OfsZ,MOfsX,MOfsY,MOfsZ,Health
FMT, 177, 31, ACC1, QQfff, TimeUS,SampleUS,AccX,AccY,AccZ
FMT, 178, 31, ACC2, QQfff, TimeUS,SampleUS,AccX,AccY,AccZ
FMT, 179, 31, ACC3, QQfff, TimeUS,SampleUS,AccX,AccY,AccZ
FMT, 180, 31, GYR1, QQfff, TimeUS,SampleUS,GyrX,GyrY,GyrZ
FMT, 181, 31, GYR2, QQfff, TimeUS,SampleUS,GyrX,GyrY,GyrZ
FMT, 182, 31, GYR3, QQfff, TimeUS,SampleUS,GyrX,GyrY,GyrZ
FMT, 184, 35, PIDR, Qffffff, TimeUS,Des,P,I,D,FF,AFF
FMT, 185, 35, PIDP, Qffffff, TimeUS,Des,P,I,D,FF,AFF
FMT, 186, 35, PIDY, Qffffff, TimeUS,Des,P,I,D,FF,AFF
FMT, 187, 35, PIDA, Qffffff, TimeUS,Des,P,I,D,FF,AFF
FMT, 188, 35, PIDS, Qffffff, TimeUS,Des,P,I,D,FF,AFF
FMT, 165, 25, BAR2, Qffcf, TimeUS,Alt,Press,Temp,CRt
FMT, 198, 25, BAR3, Qffcf, TimeUS,Alt,Press,Temp,CRt
FMT, 189, 35, VIBE, QfffIII, TimeUS,VibeX,VibeY,VibeZ,Clip0,Clip1,Clip2
FMT, 190, 43, IMT, Qffffffff, TimeUS,DelT,DelvT,DelAX,DelAY,DelAZ,DelVX,DelVY,DelVZ
FMT, 191, 43, IMT2, Qffffffff, TimeUS,DelT,DelvT,DelAX,DelAY,DelAZ,DelVX,DelVY,DelVZ
FMT, 192, 43, IMT3, Qffffffff, TimeUS,DelT,DelvT,DelAX,DelAY,DelAZ,DelVX,DelVY,DelVZ
FMT, 193, 24, ORGN, QBLLe, TimeUS,Type,Lat,Lng,Alt
FMT, 194, 19, RPM, Qff, TimeUS,rpm1,rpm2
FMT, 25, 41, ATUN, QBBfffffff, TimeUS,Axis,TuneStep,Targ,Min,Max,RP,RD,SP,ddt
FMT, 26, 19, ATDE, Qff, TimeUS,Angle,Rate
FMT, 31, 22, PTUN, QBfHHH, TimeUS,Param,TunVal,CtrlIn,TunLo,TunHi
FMT, 12, 28, OF, QBffff, TimeUS,Qual,flowX,flowY,bodyX,bodyY
FMT, 5, 51, NTUN, Qffffffffff, TimeUS,DPosX,DPosY,PosX,PosY,DVelX,DVelY,VelX,VelY,DAccX,DAccY
FMT, 4, 39, CTUN, Qhhfffecchh, TimeUS,ThrIn,AngBst,ThrOut,DAlt,Alt,BarAlt,DSAlt,SAlt,DCRt,CRt
FMT, 6, 24, PM, QHHIhBH, TimeUS,NLon,NLoop,MaxT,PMT,I2CErr,INSErr
FMT, 29, 59, RATE, Qffffffffffff, TimeUS,RDes,R,ROut,PDes,P,POut,YDes,Y,YOut,ADes,A,AOut
FMT, 30, 27, MOTB, Qffff, TimeUS,LiftMax,BatVolt,BatRes,ThLimit
FMT, 10, 11, STRT, Q, TimeUS
FMT, 13, 12, EV, QB, TimeUS,Id
FMT, 20, 14, D16, QBh, TimeUS,Id,Value
FMT, 21, 14, DU16, QBH, TimeUS,Id,Value
FMT, 22, 16, D32, QBi, TimeUS,Id,Value
FMT, 23, 16, DU32, QBI, TimeUS,Id,Value
FMT, 24, 16, DFLT, QBf, TimeUS,Id,Value
FMT, 19, 13, ERR, QBB, TimeUS,Subsys,ECode
FMT, 32, 15, HELI, Qhh, TimeUS,DRRPM,ERRPM
FMT, 33, 36, PL, QBffffff, TimeUS,Heal,bX,bY,eX,eY,pX,pY
MODE, 166830129, AltHold, 2
MSG, 166936157, APM:Copter V3.4-dev (461eff25)
MSG, 166936166, PX4: c3406165 NuttX: d48fa307
MSG, 166936209, PX4v2 003A0027 34324708 31323533
MSG, 166936219, New mission
CMD, 166936230, 7, 0, 16, 0, 0, 0, 0, 42.3564, -71.29925, 6.65
CMD, 166936243, 7, 1, 22, 0, 0, 0, 0, 0, 0, 4
CMD, 166936256, 7, 2, 201, 0, 0, 0, 0, 38.93508, -77.06123, 1
CMD, 166936269, 7, 3, 16, 0, 0, 0, 0, 38.93495, -77.06188, 29
CMD, 166936390, 7, 4, 16, 0, 0, 0, 0, 38.93505, -77.06138, 6.5
CMD, 166936402, 7, 5, 178, 0, 1, 0, 0, 0, 0, 0
CMD, 166936415, 7, 6, 16, 0, 0, 0, 0, 38.93507, -77.06133, 4
MSG, 166936422, Frame: QUAD
MODE, 166936429, AltHold, 2
IMU, 166952731, -0.002937067, 0.001145986, 0.04316024, 0.08235828, -0.16179, -9.71565, 0, 0, 43.06648, 1, 1
IMU2, 166952731, -0.002791687, 0.003117847, 0.03376456, 0.1232215, -0.1010822, -9.691605, 0, 0, 44.875, 1, 1
CURR, 166967885, 87, 1215, 131, 5164, 20.5141, 0
POWR, 166967889, 5.16, 0.06, 1
MAG, 166967931, 253, 23, 448, -69, 55, 19, 0, 0, 0, 1
MAG2, 166967935, 226, -14, 449, -27, 473, -77, 0, 0, 0, 1
BARO, 166967973, 0.3744534, 100977.6, 44.44, -0.1475879
CTUN, 166967984, 0, 0, 87, 0.7118161, 0.7118161, 0.37, 0.00, 0.00, -1, -1
DU32, 166968063, 7, 386520
ATT, 166973350, 0.00, -0.13, 0.00, -4.48, 339.98, 339.98, 0.01, 0.00
EKF1, 166973367, -0.13, -4.48, 339.98, 0.587238, -0.1012589, 0.01109824, -0.4535172, -0.1555099, -0.7108565, -0.10, 0.13, -0.13
EKF2, 166973374, 46, 4, 9, 0.00, 0.00, 218, -56, 470, 0, 0, 0
EKF3, 166973379, 0.74, 0.07, -0.16, -0.01, 0.00, -0.34, -5, 1, 10, 0.00
EKF4, 166973404, 0.15, 0.00, 0.03, 0.03, 0.01, 0.06, 0.00, 0, 0, 0, 16, 9023, 0
AHR2, 166973415, 0.41, -1.83, 341.33, 7.02, 42.3564028, -71.2992483
POS, 166973442, 42.3564031, -71.2992484, 7.36, 0.7108565
RATE, 166973448, 8.088923, 8.088923, -26, -33.29453, -33.29453, 1, 368.5228, 368.5228, -3, -0.6995201, -0.6995201, 87
RCIN, 166973463, 1481, 1508, 992, 1517, 1147, 992, 992, 992, 0, 0, 0, 0, 0, 0
RCOU, 166973611, 1079, 1079, 1079, 1079, 0, 0, 0, 0, 1000, 1600, 0, 0
VIBE, 166973627, 0.4498472, 0.6467652, 0.3773057, 0, 0, 0
IMU, 166973642, -0.002295505, -0.001856328, 0.06130445, -0.01403559, -0.2050705, -9.752123, 0, 0, 43.15512, 1, 1
IMU2, 166973642, 0.001396726, -0.005124664, 0.0626733, -0.09777981, -0.1795625, -9.740124, 0, 0, 44.75, 1, 1
IMU, 166994027, 0.002116698, 0.002892793, 0.01618775, 0.01963331, -0.1037383, -9.753099, 0, 0, 43.15512, 1, 1
IMU2, 166994027, 0.005160002, -0.004417702, 0.0171831, -0.02111998, -0.07240774, -9.672429, 0, 0, 44.875, 1, 1
IMU, 167013077, 0.0004582053, -0.002405309, -0.04260796, 0.0083859, -0.02843308, -9.74775, 0, 0, 43.1108, 1, 1
IMU2, 167013077, -0.007691101, 0.005051285, -0.0419852, -0.08927497, 0.03387379, -9.710432, 0, 0, 44.75, 1, 1
GPS, 167028206, 3, 71643200, 1866, 9, 1.08, 42.3564028, -71.2992485, 0.00, 6.00, 0.04, 200.14, 0.09999999, 1
GPA, 167028210, 1.09, 1.12, 1.44, 0.35
IMU, 167033825, -0.0009995156, -0.0001831551, -0.06017166, -0.01299832, -0.08225784, -9.744807, 0, 0, 43.1108, 1, 1
IMU2, 167033825, -0.00563495, 0.002150877, -0.07154477, 0.01304712, 0.047934, -9.83612, 0, 0, 44.875, 1, 1
IMU, 167053757, -0.0007762524, -0.00153902, -0.01466946, 0.08209026, -0.1337932, -9.71475, 0, 0, 43.1108, 1, 1
IMU2, 167053757, -0.00473599, -0.001090078, -0.02588823, 0.07657254, -0.09782861, -9.740629, 0, 0, 44.625, 1, 1
CURR, 167068945, 87, 1217, 156, 5193, 20.55816, 0
POWR, 167068950, 5.19, 0.06, 1
MAG, 167069018, 251, 23, 452, -69, 55, 19, 0, 0, 0, 1
MAG2, 167069022, 219, -6, 454, -27, 473, -77, 0, 0, 0, 1
BARO, 167069068, 0.6037698, 100975.1, 44.44, -0.1818728
CTUN, 167069078, 0, 0, 87, 0.6927788, 0.6927788, 0.60, 0.00, 0.00, -1, -1
ATT, 167074076, 0.00, -0.14, 0.00, -4.46, 339.90, 339.90, 0.03, 0.00
EKF1, 167074094, -0.14, -4.46, 339.90, 0.6114202, -0.120406, 0.01531406, -0.4197617, -0.1668484, -0.6924204, -0.10, 0.13, -0.13
EKF2, 167074101, 47, 4, 9, 0.00, 0.00, 218, -56, 470, 0, 0, 0
EKF3, 167074106, 0.54, -0.11, -0.08, 0.04, 0.00, -0.10, -4, 1, 6, 0.00
EKF4, 167074130, 0.11, 0.00, 0.00, 0.03, 0.01, 0.04, 0.00, 0, 0, 0, 16, 9023, 0
AHR2, 167074141, 0.42, -1.86, 341.26, 7.25, 42.3564028, -71.2992485
POS, 167074172, 42.3564034, -71.2992486, 7.34, 0.6924204
RATE, 167074177, -5.233636, -5.233636, 0, -12.56632, -12.56632, 2, 220.8818, 220.8818, -9, -0.4861832, -0.4861832, 87
RCIN, 167074192, 1481, 1508, 992, 1517, 1146, 992, 993, 992, 0, 0, 0, 0, 0, 0
RCOU, 167074269, 1079, 1079, 1079, 1079, 0, 0, 0, 0, 1000, 1600, 0, 0
VIBE, 167074286, 0.4044843, 0.5556662, 0.5100849, 0, 0, 0
IMU, 167074337, -0.004102157, 0.0005489484, 0.04020698, -0.0005281584, -0.1877901, -9.743027, 0, 0, 43.19945, 1, 1
IMU2, 167074337, -0.001439028, -0.0003635786, 0.03222737, -0.05554993, -0.1508348, -9.757102, 0, 0, 44.75, 1, 1
IMU, 167093868, 0.001802534, 0.001204684, 0.06057493, 0.007545517, -0.2140646, -9.764219, 0, 0, 43.19945, 1, 1
IMU2, 167093868, -0.003727262, 9.967867E-05, 0.05659293, -0.1094226, -0.1512357, -9.72371, 0, 0, 44.75, 1, 1
IMU, 167113834, 0.005490405, -0.0008375325, 0.01713079, 0.07750923, -0.04930324, -9.725723, 0, 0, 43.15512, 1, 1
IMU2, 167113834, -0.003129496, -0.0003497341, 0.02385115, -0.06492469, 0.04562425, -9.684342, 0, 0, 44.75, 1, 1
IMU, 167133874, -0.000824111, 0.0007131387, -0.04564538, -0.009377228, 0.01426927, -9.77194, 0, 0, 43.15512, 1, 1
IMU2, 167133874, -0.005712959, 0.003729667, -0.0480072, -0.1093433, 0.04464457, -9.605191, 0, 0, 44.75, 1, 1
IMU, 167153896, -0.001276087, -0.0008261559, -0.04998903, 0.002830998, -0.1498191, -9.747984, 0, 0, 43.15512, 1, 1
IMU2, 167153896, -5.655127E-05, 0.01182852, -0.05614334, -0.02767624, -0.09708204, -9.652228, 0, 0, 44.75, 1, 1
CURR, 167168949, 87, 1216, 135, 5190, 20.5957, 0
POWR, 167168953, 5.19, 0.06, 1
MAG, 167168995, 246, 22, 461, -69, 55, 19, 0, 0, 0, 1
MAG2, 167168999, 223, -8, 453, -27, 473, -77, 0, 0, 0, 1
BARO, 167169070, 0.6763383, 100974.3, 44.43, -0.1023202
CTUN, 167169080, 0, 0, 87, 0.6854678, 0.6854678, 0.67, 0.00, 0.00, -1, -1
ATT, 167174383, 0.00, -0.14, 0.00, -4.44, 339.86, 339.86, 0.03, 0.00
EKF1, 167174401, -0.14, -4.44, 339.86, 0.6362815, -0.1355364, 0.02049864, -0.3812626, -0.1750459, -0.6852844, -0.10, 0.13, -0.13
EKF2, 167174408, 47, 4, 9, 0.00, 0.00, 218, -56, 470, 0, 0, 0
EKF3, 167174413, 0.54, -0.11, -0.08, 0.04, 0.00, -0.01, 0, 2, -2, 0.00
EKF4, 167174437, 0.11, 0.00, 0.00, 0.00, 0.01, 0.01, 0.00, 0, 0, 0, 16, 9023, 0
AHR2, 167174448, 0.48, -1.90, 341.22, 7.32, 42.3564028, -71.2992485
POS, 167174476, 42.3564037, -71.2992487, 7.33, 0.6852844
RATE, 167174481, -9.446033, -9.446033, 2, 26.86731, 26.86731, -8, -101.0853, -101.0853, -5, -3.533745, -3.533745, 87
RCIN, 167174496, 1481, 1509, 992, 1516, 1147, 992, 992, 992, 0, 0, 0, 0, 0, 0
RCOU, 167174602, 1079, 1079, 1079, 1079, 0, 0, 0, 0, 1000, 1600, 0, 0
VIBE, 167174619, 0.3812428, 0.5968169, 0.6717133, 0, 0, 0
IMU, 167174634, -0.003981773, 0.001905061, -0.01429187, 0.01961158, -0.149085, -9.731524, 0, 0, 43.15512, 1, 1
IMU2, 167174634, -0.0030273, 0.0120572, -0.02566777, -0.05282748, -0.07625657, -9.710136, 0, 0, 44.75, 1, 1
IMU, 167194586, -0.001611508, 0.001387833, 0.03770704, -0.01578276, -0.0801329, -9.786483, 0, 0, 43.15512, 1, 1
IMU2, 167194586, -0.002319919, -0.0002680692, 0.03228675, 0.04324934, -0.01967187, -9.770806, 0, 0, 44.75, 1, 1
IMU, 167214484, -0.001090161, -0.005390862, 0.05424844, 0.08644475, -0.1683836, -9.738272, 0, 0, 43.19945, 1, 1
IMU2, 167214484, -0.003564266, -0.003785984, 0.05651812, 0.02257598, -0.0890146, -9.727937, 0, 0, 45, 1, 1
GPS, 167229448, 3, 71643400, 1866, 9, 1.08, 42.3564029, -71.2992485, -0.02, 6.03, 0.04, 200.14, 0.01, 1
GPA, 167229452, 1.09, 1.12, 1.44, 0.29
IMU, 167236060, 0.002953791, 0.003945732, 0.006073628, 0.02516348, -0.1220484, -9.735066, 0, 0, 43.24377, 1, 1
IMU2, 167236060, 0.0007497034, 0.006536921, 0.001276098, -0.0690019, -0.06244526, -9.650482, 0, 0, 44.875, 1, 1
IMU, 167255195, 0.003664278, 0.003236538, -0.03370448, 0.04594838, -0.1212538, -9.808325, 0, 0, 43.15512, 1, 1
IMU2, 167255195, -0.007825105, 0.01105915, -0.03377839, 0.01049054, -0.1732517, -9.760458, 0, 0, 44.875, 1, 1
CURR, 167270318, 87, 1218, 122, 5186, 20.63018, 0
POWR, 167270323, 5.18, 0.06, 1
MAG, 167270403, 250, 21, 460, -69, 55, 19, 0, 0, 0, 1
MAG2, 167270407, 223, -7, 454, -27, 473, -77, 0, 0, 0, 1
BARO, 167270443, 0.6560191, 100974.6, 44.43, 0.2015443
CTUN, 167270454, 0, 0, 87, 0.6824148, 0.6824148, 0.65, 0.00, 0.00, -2, -2
ATT, 167275423, 0.00, -0.15, 0.00, -4.41, 339.88, 339.88, 0.03, 0.01
EKF1, 167275440, -0.15, -4.41, 339.88, 0.6615986, -0.1539984, 0.02168723, -0.3394301, -0.1859951, -0.6822508, -0.10, 0.12, -0.13
EKF2, 167275447, 47, 4, 9, 0.00, 0.00, 218, -56, 470, 0, 0, 0
EKF3, 167275452, 0.57, -0.06, 0.00, 0.02, 0.00, -0.02, -3, 2, -1, 0.00
EKF4, 167275477, 0.11, 0.00, 0.00, 0.02, 0.01, 0.00, 0.00, 0, 0, 0, 16, 9023, 0
AHR2, 167275487, 0.51, -1.93, 341.25, 7.3, 42.3564029, -71.2992485
POS, 167275569, 42.3564041, -71.2992488, 7.33, 0.6822508
RATE, 167275579, -11.29188, -11.29188, 17, 19.3284, 19.3284, -16, -269.7284, -269.7284, 3, -9.062195, -9.062195, 87
RCIN, 167275594, 1482, 1507, 992, 1516, 1147, 992, 992, 992, 0, 0, 0, 0, 0, 0
RCOU, 167275782, 1079, 1079, 1079, 1079, 0, 0, 0, 0, 1000, 1600, 0, 0
VIBE, 167275798, 0.3302925, 0.6527317, 0.6846185, 0, 0, 0
IMU, 167275814, -0.0009619509, 0.003489879, -0.04487696, -0.02814718, -0.09022827, -9.721998, 0, 0, 43.15512, 1, 1
IMU2, 167275814, -0.006672368, 0.007750975, -0.05395322, -0.02638667, -0.06697349, -9.611234, 0, 0, 44.875, 1, 1
IMU, 167295184, -0.002388824, -0.001974388, -0.004626075, -0.03003573, -0.1081918, -9.775799, 0, 0, 43.15512, 1, 1
IMU2, 167295184, -0.001065096, -0.006773826, -0.01503031, -0.03484759, 0.01219313, -9.690614, 0, 0, 44.75, 1, 1
IMU, 167315363, 0.0002612414, -0.003034931, 0.04097673, 0.07831314, -0.09920923, -9.772342, 0, 0, 43.15512, 1, 1
IMU2, 167315363, -0.007861773, -0.01377956, 0.03264757, 0.06132381, -0.1575678, -9.719998, 0, 0, 44.875, 1, 1
IMU, 167335286, -0.004686455, 0.001328603, 0.03997687, -0.03911303, -0.05301373, -9.716311, 0, 0, 43.15512, 1, 1
IMU2, 167335286, -0.005675069, -0.0004674937, 0.03746722, -0.00517126, 0.02257843, -9.673644, 0, 0, 44.875, 1, 1
IMU, 167355245, 0.00158055, -0.0005193599, 0.007623246, 0.1229132, -0.2196425, -9.768995, 0, 0, 43.15512, 1, 1
IMU2, 167355245, -0.009645663, 0.002843034, 0.01143843, 0.01511236, -0.1138662, -9.738012, 0, 0, 44.875, 1, 1
CURR, 167370274, 87, 1223, 122, 5165, 20.66433, 0
POWR, 167370279, 5.16, 0.06, 1
MAG, 167370310, 247, 18, 458, -69, 55, 19, 0, 0, 0, 1
MAG2, 167370314, 223, -7, 454, -27, 473, -77, 0, 0, 0, 1
BARO, 167370351, 0.746004, 100973.6, 44.44, 0.5854311
CTUN, 167370361, 0, 0, 87, 0.679098, 0.679098, 0.74, 0.00, 0.00, -2, -2
ATT, 167375740, 0.00, -0.16, 0.00, -4.40, 339.94, 339.94, 0.03, 0.01
EKF1, 167375758, -0.16, -4.40, 339.94, 0.687041, -0.1736281, 0.02301882, -0.2944007, -0.2000574, -0.6791388, -0.10, 0.12, -0.13
EKF2, 167375764, 47, 4, 9, 0.00, 0.00, 218, -56, 470, 0, 0, 0
EKF3, 167375769, 0.57, -0.06, 0.00, 0.02, 0.00, 0.06, 0, 5, 0, 0.00
EKF4, 167375794, 0.11, 0.00, 0.00, 0.00, 0.03, 0.00, 0.00, 0, 0, 0, 16, 9023, 0
AHR2, 167375805, 0.49, -1.94, 341.32, 7.39, 42.3564029, -71.2992485
POS, 167375832, 42.3564045, -71.299249, 7.32, 0.6791388
RATE, 167375838, 13.98097, 13.98097, 18, 52.69175, 52.69175, 2, -199.2042, -199.2042, 8, -1.259804, -1.259804, 87
RCIN, 167375853, 1482, 1507, 992, 1517, 1146, 992, 993, 992, 0, 0, 0, 0, 0, 0
RCOU, 167375935, 1079, 1079, 1079, 1079, 0, 0, 0, 0, 1000, 1600, 0, 0
VIBE, 167375952, 0.3240485, 0.7491944, 0.5896022, 0, 0, 0
IMU, 167375968, 0.001822558, 0.0064394, -0.034385, -0.01678072, -0.08895569, -9.756653, 0, 0, 43.19945, 1, 1
IMU2, 167375968, -0.0006279404, 0.01645356, -0.03984048, -0.08159159, -0.01148577, -9.725255, 0, 0, 44.875, 1, 1
IMU, 167396499, -0.002389182, 0.001632471, -0.03396743, 0.1104509, -0.1667731, -9.734159, 0, 0, 43.24377, 1, 1
IMU2, 167396499, -0.00582039, 0.00420553, -0.04116642, 0.1030787, 0.005072769, -9.75598, 0, 0, 44.75, 1, 1
IMU, 167416624, -0.003501189, 0.003899487, -0.0002892077, -0.06285201, -0.08881867, -9.788061, 0, 0, 43.19945, 1, 1
IMU2, 167416624, -0.009288294, 0.001479982, -0.01327699, -0.1355627, 0.03756528, -9.700267, 0, 0, 44.75, 1, 1
GPS, 167431388, 3, 71643600, 1866, 9, 1.08, 42.3564029, -71.2992488, -0.03, 6.00, 0.26, 200.14, 0.09, 1
GPA, 167431392, 1.09, 1.12, 1.45, 0.42
IMU, 167436962, 0.0006540639, 0.001769074, 0.03948837, 0.08621988, -0.2107017, -9.753209, 0, 0, 43.15512, 1, 1
IMU2, 167436962, -0.002309487, -0.006784625, 0.02917367, -0.01282192, -0.1022469, -9.637264, 0, 0, 44.875, 1, 1
IMU, 167456968, -0.0006091412, 0.004216952, 0.02955852, -0.06127546, -0.08763258, -9.740448, 0, 0, 43.15512, 1, 1
IMU2, 167456968, -0.002043715, -0.004403939, 0.0345266, -0.1481712, 0.01763661, -9.67247, 0, 0, 44.875, 1, 1
CURR, 167472142, 87, 1221, 118, 5182, 20.69789, 0
POWR, 167472147, 5.18, 0.06, 1
MAG, 167472188, 249, 22, 457, -69, 55, 19, 0, 0, 0, 1
MAG2, 167472193, 222, -7, 454, -27, 473, -77, 0, 0, 0, 1
BARO, 167472270, 0.5253958, 100976, 44.44, 0.511928
CTUN, 167472281, 0, 0, 87, 0.6798323, 0.6798323, 0.52, 0.00, 0.00, -2, -2
ATT, 167477906, 0.00, -0.18, 0.00, -4.39, 339.98, 339.98, 0.05, 0.02
EKF1, 167478008, -0.18, -4.39, 339.98, 0.708647, -0.1956429, 0.02303347, -0.2523759, -0.2183654, -0.679332, -0.10, 0.12, -0.13
EKF2, 167478015, 46, 4, 9, 0.00, 0.00, 218, -56, 470, 0, 0, 0
EKF3, 167478020, 0.84, 0.03, -0.06, 0.09, 0.00, -0.15, -2, 1, 2, 0.00
EKF4, 167478077, 0.16, 0.01, 0.01, 0.01, 0.01, 0.01, 0.00, 0, 0, 0, 16, 9023, 0
AHR2, 167478088, 0.45, -1.93, 341.38, 7.17, 42.3564029, -71.2992488
POS, 167478120, 42.3564049, -71.2992492, 7.32, 0.679332
RATE, 167478125, 2.696733, 2.696733, -10, -14.75255, -14.75255, -4, 4.835142, 4.835142, 4, -0.7239342, -0.7239342, 87
RCIN, 167478141, 1481, 1508, 992, 1517, 1146, 992, 993, 991, 0, 0, 0, 0, 0, 0
RCOU, 167478209, 1079, 1079, 1079, 1079, 0, 0, 0, 0, 1000, 1600, 0, 0
VIBE, 167478225, 0.3227901, 0.7205507, 0.6531469, 0, 0, 0
IMU, 167478240, 0.004595899, -0.001804427, -0.0001330469, 0.1073, -0.1425497, -9.783978, 0, 0, 43.19945, 1, 1
IMU2, 167478240, -0.007286136, 0.001030798, -0.002864938, 0.04845332, -0.03624569, -9.730045, 0, 0, 44.875, 1, 1
IMU, 167497057, 0.003665164, 0.002619577, -0.03658948, -0.05607557, 0.004995082, -9.769791, 0, 0, 43.19945, 1, 1
IMU2, 167497057, -0.007746277, 0.005577371, -0.03815311, -0.1001739, 0.1367242, -9.694482, 0, 0, 44.875, 1, 1
IMU, 167516958, -0.002509303, -0.003189077, -0.02860056, 0.08436357, -0.07952423, -9.753227, 0, 0, 43.19945, 1, 1
IMU2, 167516958, -0.009008788, -0.001416254, -0.03380662, 0.0885873, 0.003161596, -9.725022, 0, 0, 44.75, 1, 1
IMU, 167537166, -0.003858404, 0.00424719, 0.002004683, -0.05164409, -0.088549, -9.759624, 0, 0, 43.1108, 1, 1
IMU2, 167537166, -0.005071259, -0.006536224, 0.005530624, -0.02956087, -0.009986988, -9.757277, 0, 0, 44.875, 1, 1
IMU, 167557002, 0.002147643, 0.0002001513, 0.0342519, 0.08804243, -0.1660884, -9.755798, 0, 0, 43.1108, 1, 1
IMU2, 167557002, -0.0010558, -0.00661354, 0.03664661, 0.08084752, -0.1362002, -9.663895, 0, 0, 44.875, 1, 1
CURR, 167572458, 87, 1224, 118, 5183, 20.73089, 0
POWR, 167572463, 5.18, 0.06, 1
MAG, 167572494, 243, 19, 463, -69, 55, 19, 0, 0, 0, 1
MAG2, 167572498, 223, -7, 456, -27, 473, -77, 0, 0, 0, 1
BARO, 167572534, 0.5253958, 100976, 44.44, 0.05785266
CTUN, 167572545, 0, 0, 87, 0.6696355, 0.6696355, 0.52, 0.00, 0.00, -2, -2
ATT, 167577111, 0.00, -0.20, 0.00, -4.38, 339.99, 339.99, 0.05, 0.01
EKF1, 167577183, -0.20, -4.38, 339.99, 0.724185, -0.215693, 0.02755225, -0.2171014, -0.2409827, -0.669122, -0.10, 0.12, -0.13
EKF2, 167577190, 46, 4, 9, 0.00, 0.00, 218, -56, 470, 0, 0, 0
EKF3, 167577195, 0.84, 0.03, -0.06, 0.09, 0.00, -0.15, 2, 4, -4, 0.00
EKF4, 167577219, 0.16, 0.01, 0.01, 0.01, 0.02, 0.02, 0.00, 0, 0, 0, 16, 9023, 0
AHR2, 167577235, 0.38, -1.90, 341.40, 7.17, 42.3564029, -71.2992488
POS, 167577262, 42.3564052, -71.2992495, 7.31, 0.669122
RATE, 167577268, -4.508201, -4.508201, -10, -16.97898, -16.97898, -5, 143.0632, 143.0632, 2, -2.596569, -2.596569, 87
RCIN, 167577283, 1481, 1507, 992, 1517, 1146, 992, 993, 992, 0, 0, 0, 0, 0, 0
RCOU, 167577593, 1079, 1079, 1079, 1079, 0, 0, 0, 0, 1000, 1600, 0, 0
VIBE, 167577609, 0.3633929, 0.7827805, 0.6742005, 0, 0, 0
IMU, 167577624, -0.00185576, 0.002639822, 0.02420207, -0.06049605, -0.06778354, -9.741905, 0, 0, 43.1108, 1, 1
IMU2, 167577624, -0.003345583, -0.004186378, 0.02104219, -0.1102801, -0.00731259, -9.708316, 0, 0, 44.875, 1, 1
IMU, 167596974, 0.005060896, 0.0006330444, -0.004782295, 0.1145455, -0.110948, -9.752859, 0, 0, 43.06648, 1, 1
IMU2, 167596974, -0.0001512718, -0.001031098, -0.009376063, 0.0626784, -0.06673815, -9.729901, 0, 0, 44.875, 1, 1
IMU, 167617344, 0.002181258, 0.005643411, -0.02550548, -0.04806341, 0.0138368, -9.752995, 0, 0, 43.1108, 1, 1
IMU2, 167617344, -0.0007156915, 0.01138645, -0.03509817, -0.08246534, 0.05282649, -9.648619, 0, 0, 44.875, 1, 1
GPS, 167632309, 3, 71643800, 1866, 9, 1.08, 42.3564029, -71.2992489, -0.04, 6.00, 0.14, 200.14, 0.03, 1
GPA, 167632313, 1.09, 1.12, 1.45, 0.44
IMU, 167638497, -0.001211786, -0.001626758, -0.01966194, 0.06321543, -0.1828123, -9.738745, 0, 0, 43.15512, 1, 1
IMU2, 167638497, 0.003075571, 0.01308161, -0.02401417, -0.04209037, -0.1872871, -9.644547, 0, 0, 44.75, 1, 1
IMU, 167658269, -0.00289396, 0.006247879, 0.005714017, -0.1081697, -0.06507909, -9.758619, 0, 0, 43.15512, 1, 1
IMU2, 167658269, -0.00148304, 0.007748468, -0.001411007, -0.2595358, -0.05280482, -9.611845, 0, 0, 44.875, 1, 1
CURR, 167673247, 87, 1225, 121, 5201, 20.76483, 0
POWR, 167673251, 5.20, 0.06, 1
MAG, 167673293, 249, 17, 459, -69, 55, 19, 0, 0, 0, 1
MAG2, 167673297, 222, -7, 452, -27, 473, -77, 0, 0, 0, 1
BARO, 167673333, 0.4702438, 100976.6, 44.44, -0.4308021
CTUN, 167673344, 0, 0, 87, 0.6593593, 0.6593593, 0.47, 0.00, 0.00, -3, -3
ATT, 167678484, 0.00, -0.21, 0.00, -4.35, 339.98, 339.98, 0.08, 0.01
EKF1, 167678501, -0.21, -4.35, 339.98, 0.7415614, -0.2363921, 0.0339958, -0.178125, -0.2606097, -0.658735, -0.10, 0.12, -0.13
EKF2, 167678508, 47, 4, 9, 0.00, 0.00, 218, -56, 470, 0, 0, 0
EKF3, 167678513, 0.57, -0.26, 0.00, 0.18, -0.01, -0.19, -3, 6, 0, 0.00
EKF4, 167678538, 0.12, 0.03, 0.01, 0.01, 0.04, 0.00, 0.00, 0, 0, 0, 16, 9023, 0
AHR2, 167678549, 0.38, -1.89, 341.38, 7.12, 42.3564029, -71.2992489
POS, 167678576, 42.3564055, -71.2992497, 7.3, 0.658735
RATE, 167678582, -2.326352, -2.326352, 19, -27.26203, -27.26203, -9, 195.4405, 195.4405, -4, -6.187248, -6.187248, 87
RCIN, 167678626, 1481, 1507, 992, 1517, 1146, 992, 993, 992, 0, 0, 0, 0, 0, 0
RCOU, 167678703, 1079, 1079, 1079, 1079, 0, 0, 0, 0, 1000, 1600, 0, 0
VIBE, 167678720, 0.4319026, 1.182621, 0.7401349, 0, 0, 0
IMU, 167678828, -0.00517812, -0.0006816182, 0.03176952, 0.06969927, -0.2388213, -9.766462, 0, 0, 43.1108, 1, 1
IMU2, 167678828, 0.0007342941, -0.004572514, 0.0317338, -0.03620983, -0.2518005, -9.633784, 0, 0, 44.875, 1, 1
IMU, 167698318, 0.0008546314, 0.003893794, 0.0213698, -0.1183714, -0.148825, -9.75922, 0, 0, 43.15512, 1, 1
IMU2, 167698318, -0.001605524, -0.004724219, 0.02168532, -0.1046102, -0.1634743, -9.726652, 0, 0, 44.875, 1, 1
IMU, 167719040, -0.001468346, 0.0005025491, -0.009095374, 0.1101944, -0.2041247, -9.748314, 0, 0, 43.24377, 1, 1
IMU2, 167719040, 8.036107E-05, 0.002144013, -0.01417314, 0.07817022, -0.05556804, -9.705313, 0, 0, 44.625, 1, 1
IMU, 167738289, -0.00144953, 0.003239315, -0.02543327, -0.0003288481, -0.04304347, -9.738052, 0, 0, 43.19945, 1, 1
IMU2, 167738289, 0.003083051, 0.006818796, -0.03372899, -0.1226913, 0.0565633, -9.638866, 0, 0, 44.625, 1, 1
IMU, 167758283, 0.003288459, 0.002020479, -0.01774632, 0.1060144, -0.05265613, -9.727912, 0, 0, 43.1108, 1, 1
IMU2, 167758283, -0.000860882, 0.008588288, -0.02483908, 0.0115093, -0.01319819, -9.704429, 0, 0, 44.625, 1, 1
CURR, 167773448, 87, 1209, 116, 5188, 20.79732, 0
POWR, 167773452, 5.18, 0.06, 1
MAG, 167773484, 246, 21, 458, -69, 55, 19, 0, 0, 0, 1
MAG2, 167773488, 222, -8, 455, -27, 473, -77, 0, 0, 0, 1
BARO, 167773524, 0.7489067, 100973.6, 44.43, -0.5492505
CTUN, 167773535, 0, 0, 87, 0.6469653, 0.6469653, 0.74, 0.00, 0.00, -3, -3
ATT, 167778584, 0.00, -0.19, 0.00, -4.33, 339.96, 339.96, 0.08, 0.02
EKF1, 167778602, -0.19, -4.33, 339.96, 0.7577823, -0.247379, 0.03519966, -0.1362955, -0.2747774, -0.6470011, -0.10, 0.12, -0.13
EKF2, 167778609, 47, 4, 9, 0.00, 0.00, 218, -56, 470, 0, 0, 0
EKF3, 167778614, 0.57, -0.26, 0.00, 0.18, -0.01, 0.09, 0, 2, 1, 0.00
EKF4, 167778641, 0.12, 0.03, 0.00, 0.00, 0.01, 0.00, 0.00, 0, 0, 0, 16, 9023, 0
AHR2, 167778652, 0.49, -1.96, 341.37, 7.39, 42.3564029, -71.2992489
POS, 167778680, 42.3564059, -71.2992499, 7.29, 0.6470011
RATE, 167778685, -0.2812724, -0.2812724, -19, -12.03988, -12.03988, 20, 70.36603, 70.36603, -5, -4.854012, -4.854012, 87
RCIN, 167778701, 1481, 1507, 993, 1516, 1147, 992, 992, 992, 0, 0, 0, 0, 0, 0
RCOU, 167778831, 1079, 1079, 1079, 1079, 0, 0, 0, 0, 1000, 1600, 0, 0
VIBE, 167778848, 0.5043332, 1.103076, 0.7087054, 0, 0, 0
IMU, 167778863, -0.001208816, -0.001806013, 0.01119479, 0.05881724, -0.1040093, -9.714468, 0, 0, 43.19945, 1, 1
IMU2, 167778863, -0.002511919, 0.001870064, 0.00863218, -0.01600704, -0.001940184, -9.705439, 0, 0, 44.75, 1, 1
IMU, 167798242, 0.0006216806, -0.001806396, 0.02587933, 0.0593937, -0.1697598, -9.718254, 0, 0, 43.19945, 1, 1
IMU2, 167798242, -0.003172198, -0.004421772, 0.02148928, -0.0524956, -0.08739197, -9.663956, 0, 0, 44.75, 1, 1
IMU, 167818476, 0.0008366649, -0.001960894, 0.01676865, 0.079755, -0.203694, -9.77232, 0, 0, 43.15512, 1, 1
IMU2, 167818476, 0.005357062, -0.009009494, 0.01382222, 0.02869224, -0.09067421, -9.730817, 0, 0, 44.75, 1, 1
GPS, 167833225, 3, 71644000, 1866, 9, 1.08, 42.3564031, -71.2992488, -0.06, 6.06, 0.09, 200.14, -0.15, 1
GPA, 167833230, 1.09, 1.12, 1.45, 0.39
IMU, 167839613, -0.0001665814, 0.00160318, -0.01109052, -0.06055212, -0.1125178, -9.755856, 0, 0, 43.24377, 1, 1
IMU2, 167839613, -0.00350876, 0.003828669, -0.01637944, -0.1680968, -0.002352618, -9.771041, 0, 0, 44.75, 1, 1
IMU, 167859914, -9.881565E-06, 0.0001235324, -0.02111594, 0.07487056, -0.1107783, -9.740014, 0, 0, 43.15512, 1, 1
IMU2, 167859914, -0.01079557, 0.003302783, -0.02160227, -0.03550012, -0.005700754, -9.822719, 0, 0, 44.75, 1, 1
CURR, 167874510, 87, 1221, 120, 5196, 20.83104, 0
POWR, 167874515, 5.19, 0.06, 1
MAG, 167874623, 245, 19, 457, -69, 55, 19, 0, 0, 0, 1
MAG2, 167874628, 222, -7, 454, -27, 473, -77, 0, 0, 0, 1
BARO, 167874664, 0.4325081, 100977, 44.44, -0.1515295
CTUN, 167874674, 0, 0, 87, 0.6487916, 0.6487916, 0.43, 0.00, 0.00, -3, -3
ATT, 167879511, 0.00, -0.19, 0.00, -4.29, 339.96, 339.96, 0.08, 0.02
EKF1, 167879582, -0.19, -4.29, 339.96, 0.7750229, -0.2583527, 0.03413833, -0.0945529, -0.2905623, -0.6482442, -0.10, 0.11, -0.13
EKF2, 167879589, 47, 4, 9, 0.00, 0.00, 218, -56, 470, 0, 0, 0
EKF3, 167879595, 0.66, -0.14, 0.17, 0.24, -0.06, -0.21, 0, 4, 1, 0.00
EKF4, 167879659, 0.13, 0.05, 0.02, 0.00, 0.02, 0.01, 0.00, 0, 0, 0, 16, 9023, 0
AHR2, 167879670, 0.53, -1.99, 341.37, 7.08, 42.3564031, -71.2992488
POS, 167879698, 42.3564063, -71.2992501, 7.29, 0.6482442
RATE, 167879703, 14.32791, 14.32791, -26, 44.66999, 44.66999, -15, -75.20691, -75.20691, 0, 6.59523, 6.59523, 87
RCIN, 167879718, 1482, 1507, 992, 1517, 1146, 992, 993, 992, 0, 0, 0, 0, 0, 0
RCOU, 167879816, 1079, 1079, 1079, 1079, 0, 0, 0, 0, 1000, 1600, 0, 0
VIBE, 167879833, 0.5078605, 1.041621, 0.8901437, 0, 0, 0
IMU, 167879848, -0.0006821407, 0.004888295, -0.01228931, -0.1434381, -0.04759113, -9.787354, 0, 0, 43.24377, 1, 1
IMU2, 167879848, 0.002072727, 0.01484967, -0.01870674, -0.167759, -0.09392872, -9.832794, 0, 0, 44.75, 1, 1
IMU, 167899485, 0.001410456, 0.002840071, 0.008261158, 0.05994539, -0.1217456, -9.743626, 0, 0, 43.1108, 1, 1
IMU2, 167899485, 0.01101357, 0.0006487415, 0.0003767632, 0.08525008, -0.1221501, -9.709299, 0, 0, 44.75, 1, 1
IMU, 167919508, -0.00280211, 0.001832023, 0.02385505, -0.07033837, -0.05439183, -9.71347, 0, 0, 43.19945, 1, 1
IMU2, 167919508, 0.00991884, 0.001988203, 0.01601382, -0.1253085, 0.05231693, -9.625422, 0, 0, 44.625, 1, 1
IMU, 167939475, -0.003219281, 0.001869233, 0.006991392, 0.1596557, -0.1507274, -9.730871, 0, 0, 43.19945, 1, 1
IMU2, 167939475, 0.004005749, 0.001543636, 0.005242157, 0.1484867, -0.08733635, -9.729612, 0, 0, 44.875, 1, 1
IMU, 167959991, 0.003465844, 0.001180382, -0.008937484, 0.03905059, -0.09296258, -9.726625, 0, 0, 43.19945, 1, 1
IMU2, 167959991, 0.00239528, -0.0005270598, -0.007763556, 0.04399943, -0.06145922, -9.642544, 0, 0, 44.75, 1, 1
CURR, 167974651, 87, 1219, 110, 5177, 20.86177, 0
POWR, 167974656, 5.17, 0.06, 1
MAG, 167974687, 245, 19, 456, -69, 55, 19, 0, 0, 0, 1
MAG2, 167974691, 223, -7, 455, -27, 473, -77, 0, 0, 0, 1
BARO, 167974976, 0.7198793, 100973.9, 44.44, 0.2238565
CTUN, 167974986, 0, 0, 87, 0.637624, 0.637624, 0.71, 0.00, 0.00, -3, -3
DU32, 167975034, 7, 386520
PM, 167975172, 62, 4000, 6169, 12, 0, 0
ATT, 167979812, 0.00, -0.17, 0.00, -4.27, 339.97, 339.97, 0.08, 0.02
EKF1, 167979829, -0.17, -4.27, 339.97, 0.7906941, -0.2734586, 0.03773781, -0.05481484, -0.3080942, -0.6377226, -0.10, 0.11, -0.13
EKF2, 167979836, 47, 4, 9, 0.00, 0.00, 218, -56, 470, 0, 0, 0
EKF3, 167979842, 0.66, -0.14, 0.17, 0.24, -0.06, 0.07, 0, 4, 3, 0.00
EKF4, 167979866, 0.13, 0.05, 0.00, 0.00, 0.02, 0.02, 0.00, 0, 0, 0, 16, 9023, 0
AHR2, 167979877, 0.50, -2.00, 341.39, 7.36, 42.3564031, -71.2992488
POS, 167979941, 42.3564067, -71.2992503, 7.28, 0.6377226
RATE, 167979947, 24.42097, 24.42097, 2, -11.7676, -11.7676, -1, -122.6296, -122.6296, 1, -7.613564, -7.613564, 87
RCIN, 167979961, 1482, 1507, 992, 1515, 1146, 993, 992, 992, 0, 0, 0, 0, 0, 0
RCOU, 167980082, 1079, 1079, 1079, 1079, 0, 0, 0, 0, 1000, 1600, 0, 0
VIBE, 167980098, 0.5723322, 0.9602939, 0.9670069, 0, 0, 0
IMU, 167980114, 0.002049, 2.489608E-05, -0.02120262, 0.02465128, -0.05202463, -9.712152, 0, 0, 43.19945, 1, 1
IMU2, 167980114, 0.002872102, 1.47267E-05, -0.02636093, -0.07865399, 0.06768277, -9.646982, 0, 0, 44.75, 1, 1
IMU, 167999684, -0.001984725, -0.003563304, -0.01086754, 0.06180663, -0.1079373, -9.78555, 0, 0, 43.15512, 1, 1
IMU2, 167999684, -0.001848544, -0.003466156, -0.01339836, -0.02353365, -0.1020686, -9.790414, 0, 0, 44.875, 1, 1
IMU, 168019729, -0.004989472, 0.00320848, 0.008836029, -0.04719882, -0.2011234, -9.831621, 0, 0, 43.24377, 1, 1
IMU2, 168019729, -0.003884677, 0.003755266, 0.005840472, -0.07988653, -0.112434, -9.802569, 0, 0, 44.875, 1, 1
GPS, 168034632, 3, 71644200, 1866, 9, 1.08, 42.3564033, -71.299249, -0.07, 6.05, 0.09, 200.14, -0.06, 1
GPA, 168034636, 1.09, 1.12, 1.46, 0.36
IMU, 168039578, -0.007486381, 0.002647892, 0.01210594, 0.08609273, -0.2629369, -9.787827, 0, 0, 43.15512, 1, 1
IMU2, 168039578, 7.709104E-05, -0.007297557, 0.01519513, 0.02187102, -0.1573223, -9.717802, 0, 0, 44.75, 1, 1
UBX1, 168054623, 0, 87, 22, 1, 4590
UBX2, 168054656, 0, -13, 150, 2, 216
IMU, 168059716, 0.001229597, 0.007937119, 0.01143488, -0.1478487, -0.08262193, -9.795371, 0, 0, 43.24377, 1, 1
IMU2, 168059716, 0.007129216, 0.005427671, 0.002816243, -0.2188658, -0.007812203, -9.800356, 0, 0, 44.75, 1, 1
CURR, 168074567, 87, 1220, 115, 5186, 20.89384, 0
POWR, 168074571, 5.18, 0.06, 1
MAG, 168074613, 247, 19, 458, -69, 55, 19, 0, 0, 0, 1
MAG2, 168074617, 223, -7, 455, -27, 473, -77, 0, 0, 0, 1
BARO, 168074656, 0.600867, 100975.2, 44.45, 0.2067328
CTUN, 168074666, 0, 0, 87, 0.6396013, 0.6396013, 0.60, 0.00, 0.00, -3, -3
ATT, 168079736, 0.00, -0.16, 0.00, -4.24, 340.00, 340.00, 0.07, 0.02
EKF1, 168079754, -0.16, -4.24, 340.00, 0.8048955, -0.2898978, 0.03611691, -0.01748318, -0.3260798, -0.6394094, -0.10, 0.11, -0.13
EKF2, 168079760, 47, 4, 9, 0.00, 0.00, 218, -56, 470, 0, 0, 0
EKF3, 168079765, 0.79, -0.16, 0.09, 0.30, -0.08, -0.03, -2, 4, 1, 0.00
EKF4, 168079826, 0.16, 0.06, 0.00, 0.01, 0.02, 0.00, 0.00, 0, 0, 0, 16, 9023, 0
AHR2, 168079903, 0.49, -2.00, 341.42, 7.25, 42.3564033, -71.299249
POS, 168079931, 42.356407, -71.2992505, 7.28, 0.6394094
RATE, 168079936, 47.96941, 47.96941, -19, 11.31269, 11.31269, -3, -51.09705, -51.09705, 2, -3.301144, -3.301144, 87
RCIN, 168079952, 1481, 1507, 992, 1516, 1147, 992, 992, 992, 0, 0, 0, 0, 0, 0
RCOU, 168080061, 1079, 1079, 1079, 1079, 0, 0, 0, 0, 1000, 1600, 0, 0
VIBE, 168080127, 0.5496494, 1.402395, 1.029657, 0, 0, 0
IMU, 168080142, 0.007360593, 0.002028047, -0.008840966, 0.07965963, -0.0232547, -9.720775, 0, 0, 43.15512, 1, 1
IMU2, 168080142, 0.005797292, 0.005922597, -0.01376487, 0.02002304, 0.0224956, -9.731816, 0, 0, 44.875, 1, 1
IMU, 168100055, -0.0006814792, 0.002846769, -0.009929845, 0.009782548, -0.03270949, -9.739628, 0, 0, 43.19945, 1, 1
IMU2, 168100055, 0.0006289686, 0.005509169, -0.01759821, 0.01417276, -0.05345608, -9.764593, 0, 0, 44.875, 1, 1
IMU, 168119944, 0.001869467, 0.001353755, -0.006187038, 0.1295938, -0.1478258, -9.68152, 0, 0, 43.19945, 1, 1
IMU2, 168119944, 0.00613566, 0.001034298, -0.008514585, 0.05400639, -0.1229588, -9.706257, 0, 0, 44.875, 1, 1
IMU, 168139987, 0.002548749, -0.002901072, 0.008965154, 0.05827231, -0.188509, -9.701003, 0, 0, 43.1108, 1, 1
IMU2, 168139987, 0.008365277, 0.003402127, 0.001376961, 0.003016003, -0.1170694, -9.643301, 0, 0, 44.875, 1, 1
IMU, 168160071, -0.001568621, 0.001563085, 0.009746205, -0.01175572, -0.1488935, -9.776431, 0, 0, 43.19945, 1, 1
IMU2, 168160071, -0.001120846, -0.001360243, 0.01066084, -0.04735678, -0.150224, -9.663314, 0, 0, 44.875, 1, 1
CURR, 168175217, 87, 1216, 117, 5185, 20.92669, 0
POWR, 168175221, 5.18, 0.06, 1
MAG, 168175253, 247, 21, 458, -69, 55, 19, 0, 0, 0, 1
MAG2, 168175257, 223, -8, 454, -27, 473, -77, 0, 0, 0, 1
BARO, 168175293, 0.4208972, 100977.1, 44.44, 0.0852489
CTUN, 168175304, 0, 0, 87, 0.6358955, 0.6358955, 0.42, 0.00, 0.00, -3, -3
ATT, 168180070, 0.00, -0.16, 0.00, -4.21, 340.01, 340.01, 0.07, 0.01
EKF1, 168180149, -0.16, -4.21, 340.01, 0.8114079, -0.303692, 0.03742658, 0.01719583, -0.3447262, -0.6352856, -0.10, 0.11, -0.13
EKF2, 168180156, 47, 4, 9, 0.00, 0.00, 218, -56, 470, 0, 0, 0
EKF3, 168180161, 0.79, -0.16, 0.09, 0.30, -0.08, -0.21, -3, 2, 1, 0.00
EKF4, 168180186, 0.16, 0.06, 0.02, 0.02, 0.01, 0.00, 0.00, 0, 0, 0, 16, 9023, 0
AHR2, 168180196, 0.48, -1.98, 341.44, 7.07, 42.3564033, -71.299249
POS, 168180224, 42.3564072, -71.2992507, 7.28, 0.6352856
RATE, 168180230, -7.993408, -7.993408, 22, -44.42863, -44.42863, -19, 61.19489, 61.19489, 0, -2.641678, -2.641678, 87
RCIN, 168180245, 1482, 1507, 992, 1517, 1146, 993, 992, 992, 0, 0, 0, 0, 0, 0
RCOU, 168180405, 1079, 1079, 1079, 1079, 0, 0, 0, 0, 1000, 1600, 0, 0
VIBE, 168180422, 0.5954837, 1.437393, 1.036053, 0, 0, 0
IMU, 168180446, -0.003911944, -0.003709403, 0.009820466, 0.06352019, -0.2108215, -9.808143, 0, 0, 43.19945, 1, 1
IMU2, 168180446, -0.002458501, -0.007791623, 0.006757006, -0.1040134, -0.1253503, -9.657285, 0, 0, 44.875, 1, 1
RAD, 168192660, 88, 88, 0, 55, 44, 3, 16
RAD, 168195367, 88, 88, 0, 55, 44, 3, 16
IMU, 168201046, -0.004141685, 0.009991197, -0.007757526, -0.1541647, -0.1797706, -9.785612, 0, 0, 43.28809, 1, 1
IMU2, 168201046, -0.009141346, -0.0003475595, -0.006989508, -0.2772049, -0.125821, -9.691891, 0, 0, 44.875, 1, 1
IMU, 168220065, 0.001521133, -0.0005860963, -0.007944273, 0.1064124, -0.05722818, -9.736125, 0, 0, 43.24377, 1, 1
IMU2, 168220065, -0.001067055, -0.004524067, -0.01433483, 0.1170584, -0.01788186, -9.754995, 0, 0, 44.875, 1, 1
GPS, 168235126, 3, 71644400, 1866, 9, 1.08, 42.3564032, -71.299249, -0.08, 6.08, 0.11, 200.14, -0.07, 1
GPA, 168235130, 1.09, 1.13, 1.46, 0.42
IMU, 168240089, 0.004576768, 0.001314989, 0.00352836, -0.05250055, 0.06237114, -9.759058, 0, 0, 43.15512, 1, 1
IMU2, 168240089, -0.003551753, 0.001920646, -0.01089742, 0.07582013, 0.2066572, -9.696917, 0, 0, 44.875, 1, 1
IMU, 168260116, 0.0008332994, -0.003702621, 0.00905978, 0.1705184, 0.01872288, -9.707609, 0, 0, 43.15512, 1, 1
IMU2, 168260116, 0.0016935, -0.003134208, 0.0008084165, 0.1347751, -0.05020058, -9.703868, 0, 0, 44.625, 1, 1
RAD, 168270074, 88, 88, 0, 57, 44, 3, 16
RAD, 168272561, 88, 88, 0, 57, 44, 3, 16
CURR, 168275139, 87, 1217, 122, 5193, 20.96057, 0
POWR, 168275143, 5.19, 0.06, 1
MAG, 168275222, 248, 20, 458, -69, 55, 19, 0, 0, 0, 1
MAG2, 168275226, 224, -7, 455, -27, 473, -77, 0, 0, 0, 1
BARO, 168275262, 0.5631314, 100975.6, 44.44, -0.1159803
CTUN, 168275273, 0, 0, 87, 0.6235825, 0.6235825, 0.56, 0.00, 0.00, -4, -4
ATT, 168280374, 0.00, -0.15, 0.00, -4.19, 340.01, 340.01, 0.07, 0.01
EKF1, 168280392, -0.15, -4.19, 340.01, 0.8197136, -0.3140613, 0.04024444, 0.04831766, -0.3614624, -0.6233094, -0.10, 0.10, -0.13
EKF2, 168280399, 47, 4, 9, 0.00, 0.00, 218, -56, 470, 0, 0, 0
EKF3, 168280404, 0.90, -0.30, 0.10, 0.39, -0.11, -0.06, -3, 3, 1, 0.00
EKF4, 168280469, 0.19, 0.08, 0.00, 0.02, 0.02, 0.00, 0.00, 0, 0, 0, 16, 9023, 0
AHR2, 168280480, 0.48, -1.97, 341.45, 7.21, 42.3564032, -71.299249
POS, 168280512, 42.3564075, -71.2992509, 7.27, 0.6233094
RATE, 168280517, 12.26933, 12.26933, 7, -21.57112, -21.57112, 29, 49.01534, 49.01534, 0, -3.234863, -3.234863, 87
RCIN, 168280532, 1481, 1508, 992, 1512, 1146, 992, 993, 992, 0, 0, 0, 0, 0, 0
RCOU, 168280600, 1079, 1079, 1079, 1079, 0, 0, 0, 0, 1000, 1600, 0, 0
VIBE, 168280616, 0.8152753, 1.705905, 0.9256623, 0, 0, 0
IMU, 168280632, 0.00372249, -0.002883965, 0.006326401, 0.06152842, -0.1301308, -9.737122, 0, 0, 43.24377, 1, 1
IMU2, 168280632, -0.003020991, -0.000810693, 0.005981531, 0.04956729, -0.1029289, -9.720511, 0, 0, 44.875, 1, 1
IMU, 168300093, -0.0002032949, 0.001833168, 0.00131079, 0.01478993, -0.2510708, -9.774705, 0, 0, 43.24377, 1, 1
IMU2, 168300093, 0.004445861, 0.003905384, 0.006137979, -0.1286807, -0.3352721, -9.606445, 0, 0, 44.625, 1, 1
IMU, 168320131, -0.002112406, -0.004308351, -0.003993829, 0.04585917, -0.2138104, -9.770342, 0, 0, 43.1108, 1, 1
IMU2, 168320131, 0.005211556, -0.005078776, -0.0007482587, 0.008284346, -0.09131995, -9.723417, 0, 0, 44.625, 1, 1
IMU, 168340107, -0.01018725, 0.008568612, -0.0004530174, -0.07544553, -0.2414216, -9.806726, 0, 0, 43.19945, 1, 1
IMU2, 168340107, -0.001901229, 0.007411735, -0.005571109, -0.1864792, -0.153081, -9.660844, 0, 0, 44.875, 1, 1
IMU, 168360110, -0.008270678, 0.002356226, 0.0005834582, 0.1060354, -0.2220458, -9.734623, 0, 0, 43.19945, 1, 1
IMU2, 168360110, -0.009827595, -0.007420019, 0.002319103, 0.09920981, -0.01117265, -9.687708, 0, 0, 44.875, 1, 1
CURR, 168375163, 87, 1219, 120, 5201, 20.99406, 0
POWR, 168375203, 5.20, 0.06, 1
MAG, 168375234, 247, 23, 458, -69, 55, 19, 0, 0, 0, 1
MAG2, 168375238, 221, -8, 455, -27, 473, -77, 0, 0, 0, 1
BARO, 168375313, 0.5370067, 100975.9, 44.44, -0.3679623
CTUN, 168375324, 0, 0, 87, 0.6180884, 0.6180884, 0.53, 0.00, 0.00, -4, -4
ATT, 168380194, 0.00, -0.12, 0.00, -4.15, 340.04, 340.04, 0.07, 0.01
EKF1, 168380212, -0.12, -4.15, 340.04, 0.8298769, -0.3151171, 0.04207655, 0.07491779, -0.3754715, -0.6177655, -0.10, 0.11, -0.13
EKF2, 168380219, 47, 4, 9, 0.00, 0.00, 218, -56, 470, 0, 0, 0
EKF3, 168380224, 0.90, -0.30, 0.10, 0.39, -0.11, -0.08, -3, 0, 1, 0.00
EKF4, 168380248, 0.19, 0.08, 0.00, 0.02, 0.00, 0.01, 0.00, 0, 0, 0, 16, 9023, 0
AHR2, 168380259, 0.54, -1.94, 341.48, 7.18, 42.3564032, -71.299249
POS, 168380440, 42.3564077, -71.2992511, 7.26, 0.6177655
RATE, 168380445, 28.21853, 28.21853, -103, 16.10477, 16.10477, 27, 40.76478, 40.76478, 0, 4.200172, 4.200172, 87
RCIN, 168380469, 1481, 1507, 992, 1512, 1147, 992, 992, 992, 0, 0, 0, 0, 0, 0
RCOU, 168380537, 1079, 1079, 1079, 1079, 0, 0, 0, 0, 1000, 1600, 0, 0
VIBE, 168380553, 0.9236282, 2.054507, 1.056528, 0, 0, 0
IMU, 168380569, 0.007771447, 0.002109708, 0.004423587, -0.06739067, 0.09280778, -9.753316, 0, 0, 43.19945, 1, 1
IMU2, 168380569, -0.001498241, 0.007355195, 0.004994642, -0.09314728, 0.1258113, -9.827129, 0, 0, 44.875, 1, 1
IMU, 168400115, 0.007677773, -0.005763912, 0.002727535, 0.1707339, 0.1787305, -9.710196, 0, 0, 43.19945, 1, 1
IMU2, 168400115, -0.002458246, -0.0001135883, 0.002416368, 0.1089835, 0.2043093, -9.709454, 0, 0, 44.625, 1, 1
IMU, 168420137, 0.0007644664, -0.004331213, -0.001087393, -0.03605887, -0.0564532, -9.74412, 0, 0, 43.19945, 1, 1
IMU2, 168420137, -3.157978E-05, 0.00290286, -0.005871177, 0.01087723, 0.06792736, -9.449885, 0, 0, 44.75, 1, 1
GPS, 168435433, 3, 71644600, 1866, 9, 1.08, 42.3564032, -71.299249, -0.09, 6.06, 0.04, 200.14, 0.07, 1
GPA, 168435437, 1.09, 1.13, 1.46, 0.38
IMU, 168440089, 0.0002097047, 0.002432753, -0.00545137, -0.047633, -0.216697, -9.812725, 0, 0, 43.1108, 1, 1
IMU2, 168440089, 0.002154008, -0.002274882, -0.005041269, -0.08533937, -0.3002447, -9.689557, 0, 0, 44.75, 1, 1
IMU, 168460106, -0.002088537, 3.120101E-05, -0.003375753, 0.04308593, -0.1930335, -9.761766, 0, 0, 43.19945, 1, 1
IMU2, 168460106, -0.004017274, -0.005684571, -0.01053699, -0.002469833, -0.1281768, -9.727494, 0, 0, 44.75, 1, 1
CURR, 168475073, 87, 1219, 115, 5161, 21.02604, 0
POWR, 168475077, 5.16, 0.06, 1
MAG, 168475144, 247, 22, 458, -69, 55, 19, 0, 0, 0, 1
MAG2, 168475148, 223, -7, 451, -27, 473, -77, 0, 0, 0, 1
BARO, 168475182, 0.2931767, 100978.5, 44.45, -0.3301579
CTUN, 168475193, 0, 0, 87, 0.6108588, 0.6108588, 0.29, 0.00, 0.00, -4, -4
ATT, 168480806, 0.00, -0.14, 0.00, -4.11, 340.04, 340.04, 0.07, 0.00
EKF1, 168480823, -0.14, -4.11, 340.04, 0.8295302, -0.3245542, 0.04537502, 0.1022376, -0.3892368, -0.6098664, -0.10, 0.10, -0.13
EKF2, 168480830, 46, 4, 9, 0.00, 0.00, 218, -56, 470, 0, 0, 0
EKF3, 168480835, 0.77, -0.29, -0.03, 0.46, -0.15, -0.32, -3, 1, 1, 0.00
EKF4, 168480859, 0.16, 0.09, 0.03, 0.02, 0.01, 0.01, 0.00, 0, 0, 0, 16, 9023, 0
AHR2, 168480870, 0.53, -1.95, 341.47, 6.94, 42.3564032, -71.299249
POS, 168480898, 42.356408, -71.2992513, 7.25, 0.6098664
RATE, 168480903, -7.949862, -7.949862, 10, 17.01822, 17.01822, -2, 23.6364, 23.6364, 0, -1.627827, -1.627827, 87
RCIN, 168480919, 1482, 1506, 992, 1516, 1146, 992, 993, 992, 0, 0, 0, 0, 0, 0
RCOU, 168481027, 1079, 1079, 1079, 1079, 0, 0, 0, 0, 1000, 1600, 0, 0
VIBE, 168481043, 0.8090732, 2.158895, 1.012834, 0, 0, 0
IMU, 168481059, -0.007164697, 0.008027093, 0.001901755, -0.03635372, -0.2839586, -9.737529, 0, 0, 43.15512, 1, 1
IMU2, 168481059, 0.0008022263, 0.001598617, 0.001519477, -0.1170247, -0.1338779, -9.732079, 0, 0, 44.75, 1, 1
IMU, 168500774, -0.00512806, -0.005297977, 0.01090242, 0.1812305, -0.2226335, -9.741301, 0, 0, 43.15512, 1, 1
IMU2, 168500774, 0.004719411, 0.001791272, 0.005635003, 0.1034052, -0.1067686, -9.696079, 0, 0, 44.75, 1, 1
IMU, 168520592, 0.0001648118, 0.002766969, 0.003124236, -0.05532346, 0.01896628, -9.790404, 0, 0, 43.24377, 1, 1
IMU2, 168520592, -0.002103738, 0.00381424, 0.005563118, -0.06371155, 0.1066828, -9.715741, 0, 0, 44.75, 1, 1
IMU, 168540609, 0.004702034, -0.002535983, -0.002229051, 0.1225801, 0.0387769, -9.730196, 0, 0, 43.15512, 1, 1
IMU2, 168540609, -0.00102903, -0.006227776, 0.005832543, 0.1217343, 0.07432619, -9.645178, 0, 0, 44.75, 1, 1
IMU, 168561550, 0.004063805, -0.001104668, -0.006028603, -0.06461503, -0.1351832, -9.767185, 0, 0, 43.15512, 1, 1
IMU2, 168561550, 0.002359314, -0.004136107, -0.003855625, -0.08648691, -0.2177846, -9.684591, 0, 0, 44.75, 1, 1
CURR, 168575729, 87, 1218, 120, 5199, 21.05974, 0
POWR, 168575734, 5.19, 0.06, 1
MAG, 168575804, 248, 21, 456, -69, 55, 19, 0, 0, 0, 1
MAG2, 168575809, 223, -7, 458, -27, 473, -77, 0, 0, 0, 1
BARO, 168575845, 0.5253958, 100976, 44.45, -0.2629077
CTUN, 168575855, 0, 0, 87, 0.5912203, 0.5912203, 0.52, 0.00, 0.00, -5, -5
ATT, 168580786, 0.00, -0.13, 0.00, -4.08, 340.07, 340.07, 0.07, 0.01
EKF1, 168580804, -0.13, -4.08, 340.07, 0.8363877, -0.3359433, 0.05452873, 0.1301206, -0.4024554, -0.5907688, -0.10, 0.10, -0.13
EKF2, 168580810, 46, 4, 9, 0.00, 0.00, 218, -56, 470, 0, 0, 0
EKF3, 168580815, 0.77, -0.29, -0.03, 0.46, -0.15, -0.07, -4, 2, 3, 0.00
EKF4, 168580840, 0.16, 0.09, 0.00, 0.02, 0.01, 0.02, 0.00, 0, 0, 0, 16, 9023, 0
AHR2, 168580851, 0.54, -2.01, 341.50, 7.17, 42.3564032, -71.299249
POS, 168580914, 42.3564082, -71.2992514, 7.24, 0.5907688
RATE, 168580920, 8.880806, 8.880806, 18, 4.203929, 4.203929, -19, 6.092079, 6.092079, 0, -4.10862, -4.10862, 87
RCIN, 168580935, 1482, 1509, 992, 1516, 1146, 992, 993, 991, 0, 0, 0, 0, 0, 0
RCOU, 168581012, 1079, 1079, 1079, 1079, 0, 0, 0, 0, 1000, 1600, 0, 0
VIBE, 168581040, 0.625649, 1.612664, 0.9174832, 0, 0, 0
IMU, 168581055, -0.0008522173, 0.006176592, -0.0002911566, -0.001478702, -0.1886194, -9.782734, 0, 0, 43.19945, 1, 1
IMU2, 168581055, 0.0003675642, -0.001014234, -0.002418735, -0.04175748, -0.2360609, -9.653129, 0, 0, 44.75, 1, 1
IMU, 168600609, -0.002062401, -0.002528113, 0.005735232, 0.06985541, -0.144445, -9.71222, 0, 0, 43.15512, 1, 1
IMU2, 168600609, 0.005798416, -0.003044287, 0.003755279, 0.07982147, -0.1705157, -9.549386, 0, 0, 44.75, 1, 1
IMU, 168620632, -0.003534591, 0.002276333, 0.00420761, -0.01906157, -0.2236701, -9.766523, 0, 0, 43.24377, 1, 1
IMU2, 168620632, -0.001065757, -0.001143142, 0.006984016, -0.1871094, -0.1616257, -9.652408, 0, 0, 44.75, 1, 1
GPS, 168635817, 3, 71644800, 1866, 9, 1.08, 42.3564033, -71.299249, -0.12, 6.05, 0.07, 200.14, -0.09999999, 1
GPA, 168635822, 1.09, 1.13, 1.46, 0.39
IMU, 168640620, -0.00659328, -0.006021873, 0.001937184, 0.115061, -0.138537, -9.748898, 0, 0, 43.15512, 1, 1
IMU2, 168640620, -0.0004758332, -0.003226152, 0.004342551, 0.0183551, 0.01530315, -9.69835, 0, 0, 45, 1, 1
IMU, 168660549, 0.003116166, 0.003363449, -0.009990873, -0.05510831, -0.1023191, -9.790718, 0, 0, 43.19945, 1, 1
IMU2, 168660549, 0.008790081, 0.004660403, -0.004149598, -0.1175299, -0.07689565, -9.712885, 0, 0, 44.75, 1, 1
CURR, 168675493, 87, 1218, 114, 5191, 21.09151, 0
POWR, 168675497, 5.19, 0.06, 1
MAG, 168675568, 247, 22, 457, -69, 55, 19, 0, 0, 0, 1
MAG2, 168675573, 222, -7, 452, -27, 473, -77, 0, 0, 0, 1
BARO, 168675648, 0.5021739, 100976.2, 44.44, -0.3219712
CTUN, 168675659, 0, 0, 87, 0.5830494, 0.5830494, 0.50, 0.00, 0.00, -5, -5
ATT, 168680973, 0.00, -0.11, 0.00, -4.05, 340.09, 340.09, 0.07, 0.01
EKF1, 168681034, -0.11, -4.05, 340.09, 0.8344765, -0.3446183, 0.05681105, 0.1555316, -0.4153756, -0.5826494, -0.10, 0.10, -0.13
EKF2, 168681041, 47, 4, 9, 0.00, 0.00, 218, -56, 470, 0, 0, 0
EKF3, 168681046, 0.89, -0.33, 0.14, 0.50, -0.18, -0.08, -3, 1, 2, 0.00
EKF4, 168681079, 0.19, 0.10, 0.00, 0.02, 0.00, 0.01, 0.00, 0, 0, 0, 16, 9023, 0
AHR2, 168681090, 0.55, -2.04, 341.52, 7.15, 42.3564033, -71.299249
POS, 168681207, 42.3564084, -71.2992516, 7.23, 0.5826494
RATE, 168681213, 29.69934, 29.69934, -28, -23.07205, -23.07205, -15, -17.17699, -17.17699, 0, -4.899406, -4.899406, 87
RCIN, 168681236, 1482, 1505, 993, 1515, 1146, 993, 992, 992, 0, 0, 0, 0, 0, 0
RCOU, 168681335, 1079, 1079, 1079, 1079, 0, 0, 0, 0, 1000, 1600, 0, 0
VIBE, 168681351, 0.563037, 1.54555, 1.055836, 0, 0, 0
IMU, 168681366, 0.004187577, -0.001035712, -0.005695081, 0.06383453, -0.08152838, -9.727963, 0, 0, 43.19945, 1, 1
IMU2, 168681366, 0.002585927, -0.003503662, -0.005156726, 0.01367298, -0.1356891, -9.694044, 0, 0, 44.875, 1, 1
IMU, 168701004, 0.0006391024, -0.000458099, -0.006022123, -0.03584895, -0.06019972, -9.756624, 0, 0, 43.15512, 1, 1
IMU2, 168701004, -0.003321556, -0.002314722, -0.001312126, 0.01078706, 0.01086727, -9.683479, 0, 0, 44.75, 1, 1
IMU, 168720972, -0.0006389959, 0.008173035, 0.007375853, -0.005860385, -0.1107193, -9.811167, 0, 0, 43.24377, 1, 1
IMU2, 168720972, 0.001140254, 0.0003554184, 0.005325691, -0.1445252, -0.174983, -9.687577, 0, 0, 44.75, 1, 1
IMU, 168740978, -0.00249506, -0.004230911, 0.01208925, 0.03729461, -0.1841817, -9.718576, 0, 0, 43.15512, 1, 1
IMU2, 168740978, 0.003299733, -0.006709498, 0.005043663, 0.03417224, -0.1272774, -9.59836, 0, 0, 44.875, 1, 1
IMU, 168760940, 0.001914452, 0.001737151, 0.000433291, -0.03661677, -0.1972733, -9.736494, 0, 0, 43.15512, 1, 1
IMU2, 168760940, -0.001152975, 0.002228708, -0.002622953, -0.04905259, -0.06549346, -9.735346, 0, 0, 44.875, 1, 1
CURR, 168776182, 87, 1228, 116, 5188, 21.12403, 0
POWR, 168776186, 5.18, 0.06, 1
MAG, 168776217, 246, 20, 458, -69, 55, 19, 0, 0, 0, 1
MAG2, 168776222, 222, -7, 453, -27, 473, -77, 0, 0, 0, 1
BARO, 168776260, 0.6473109, 100974.7, 44.45, -0.02370238
CTUN, 168776483, 0, 0, 87, 0.5755091, 0.5755091, 0.64, 0.00, 0.00, -5, -5
ATT, 168781446, 0.00, -0.11, 0.00, -4.02, 340.11, 340.11, 0.07, 0.01
EKF1, 168781464, -0.11, -4.02, 340.11, 0.8361084, -0.3492796, 0.05790462, 0.1775675, -0.4274371, -0.5754637, -0.10, 0.10, -0.13
EKF2, 168781471, 47, 4, 9, 0.00, 0.00, 218, -56, 470, 0, 0, 0
EKF3, 168781476, 0.89, -0.33, 0.14, 0.50, -0.18, 0.06, -2, 3, 2, 0.00
EKF4, 168781529, 0.19, 0.10, 0.00, 0.01, 0.02, 0.01, 0.00, 0, 0, 0, 16, 9023, 0
AHR2, 168781540, 0.55, -2.04, 341.54, 7.29, 42.3564033, -71.299249
POS, 168781601, 42.3564086, -71.2992517, 7.22, 0.5754637
RATE, 168781606, -0.5482954, -0.5482954, -1, -55.93491, -55.93491, -4, -26.87003, -26.87003, 0, 0.8268356, 0.8268356, 87
RCIN, 168781621, 1482, 1509, 992, 1515, 1147, 992, 992, 992, 0, 0, 0, 0, 0, 0
RCOU, 168781698, 1079, 1079, 1079, 1079, 0, 0, 0, 0, 1000, 1600, 0, 0
VIBE, 168781715, 0.6961676, 1.401048, 0.9799312, 0, 0, 0
IMU, 168781730, -0.0036821, -0.006733832, -0.0003522221, 0.2270809, -0.04336867, -9.749089, 0, 0, 43.24377, 1, 1
IMU2, 168781730, -9.958095E-05, -0.009267708, -0.01388976, 0.1479577, -0.01748968, -9.802835, 0, 0, 44.875, 1, 1
IMU, 168801563, 0.001195592, 0.004660544, -0.01077842, -0.07965198, -0.1670029, -9.767054, 0, 0, 43.24377, 1, 1
IMU2, 168801563, 0.003414253, 0.006666879, -0.01472535, -0.1298866, -0.1453631, -9.73573, 0, 0, 44.75, 1, 1
IMU, 168821555, 0.001980974, -0.0002327065, 0.001789028, -0.001317642, -0.07590602, -9.775227, 0, 0, 43.15512, 1, 1
IMU2, 168821555, -0.002709069, -0.002060313, -0.00965017, -0.09698428, 0.03031546, -9.770655, 0, 0, 44.875, 1, 1
GPS, 168836688, 3, 71645000, 1866, 9, 1.08, 42.3564032, -71.2992489, -0.13, 6.04, 0.14, 200.14, 0.12, 1
GPA, 168836692, 1.09, 1.13, 1.46, 0.45
MODE, 168836896, Guided, 4
IMU, 168841648, -0.0005637524, -0.003205488, 0.006060063, -0.04598281, -0.02375816, -9.805951, 0, 0, 43.15512, 1, 1
IMU2, 168841648, -0.002600366, 0.002415844, -0.009277098, 0.02016242, 0.08064939, -9.741364, 0, 0, 44.75, 1, 1
EV, 168844044, 15
IMU, 168861688, -0.0003163799, 0.007270847, 0.007771322, -0.05748252, -0.1969971, -9.777022, 0, 0, 43.15512, 1, 1
IMU2, 168861688, -0.001402917, 0.001627014, 0.007783026, -0.2320239, -0.1447348, -9.78879, 0, 0, 44.875, 1, 1
CURR, 168876596, 129, 1213, 123, 5164, 21.15861, 0
POWR, 168876601, 5.16, 0.06, 1
MAG, 168876632, 249, 19, 459, -69, 55, 19, 0, 0, 0, 1
MAG2, 168876636, 220, -6, 452, -27, 473, -77, 0, 0, 0, 1
BARO, 168876755, 0.734393, 100973.7, 44.44, 0.5175247
CTUN, 168876765, 0, 0, 129, 0.5170802, 0.5741791, 0.73, 0.00, 0.00, -5, -5
ATT, 168882007, -0.12, -0.10, -3.99, -3.98, 340.10, 340.12, 0.06, 0.01
EKF1, 168882033, -0.10, -3.98, 340.12, 0.8342875, -0.3496108, 0.05716936, 0.1965366, -0.438875, -0.5742294, -0.10, 0.09, -0.14
EKF2, 168882040, 46, 4, 9, 0.00, 0.00, 218, -56, 470, 0, 0, 0
EKF3, 168882046, 0.97, -0.33, -0.06, 0.57, -0.21, 0.15, -5, 4, 1, 0.00
EKF4, 168882078, 0.20, 0.12, 0.01, 0.03, 0.02, 0.00, 0.00, 0, 0, 0, 16, 9023, 0
AHR2, 168882089, 0.55, -2.02, 341.55, 7.38, 42.3564032, -71.2992489
POS, 168882116, 42.3564088, -71.2992519, 7.22, 0.5742294
RATE, 168882122, -24.07433, -10.95511, 26, -11.18944, -62.71246, 26, -11.98216, 49.50468, -18, -0.9952713, -9.845734, 129
RCIN, 168882136, 1481, 1508, 992, 1515, 1147, 992, 992, 992, 0, 0, 0, 0, 0, 0
RCOU, 168882273, 1125, 1123, 1125, 1128, 0, 0, 0, 0, 1000, 1600, 0, 0
NTUN, 168882291, 102.8196, -78.62472, 19.65366, -43.8875, 83.42176, -34.90089, 83.42875, -34.96108, 63.75861, -25.21404
VIBE, 168882295, 0.7112015, 1.318921, 0.8638487, 0, 0, 0
IMU, 168882361, -0.003341171, -0.005913226, 0.006525378, 0.1786856, -0.1224587, -9.680964, 0, 0, 43.19945, 1, 1
IMU2, 168882361, -0.004077142, -0.01265477, 0.005864784, 0.03367988, -0.05139633, -9.648986, 0, 0, 44.75, 1, 1
IMU, 168902518, 0.004843906, 0.0003764755, -0.01193938, 0.003947118, -0.1247056, -9.75179, 0, 0, 43.15512, 1, 1
IMU2, 168902518, -0.001250002, 0.007121739, -0.01213069, 0.04787984, -0.183816, -9.642912, 0, 0, 44.75, 1, 1
IMU, 168922380, -0.005296405, -0.002817806, -0.004080369, 0.106511, -0.1160859, -9.729965, 0, 0, 43.24377, 1, 1
IMU2, 168922380, 0.004941814, 0.002259421, -0.012496, 0.05375773, -0.09350497, -9.657848, 0, 0, 44.75, 1, 1
IMU, 168942354, -0.003827408, -0.00640893, -0.0008069795, 0.03759008, -0.1088938, -9.760607, 0, 0, 43.15512, 1, 1
IMU2, 168942354, -0.003049088, -0.0005535291, -0.004856874, 0.1241579, 0.09320715, -9.687767, 0, 0, 44.75, 1, 1
IMU, 168962063, -0.004537434, 0.006801093, 0.007949563, -0.06043339, -0.1137245, -9.725389, 0, 0, 43.15512, 1, 1
IMU2, 168962063, -0.002546053, 0.003127074, 0.002471475, -0.1409171, -0.1472685, -9.715713, 0, 0, 44.75, 1, 1
CURR, 168977336, 129, 1217, 193, 5193, 21.21264, 0
POWR, 168977341, 5.19, 0.06, 1
MAG, 168977385, 245, 21, 455, -69, 55, 19, 0, 0, 0, 1
MAG2, 168977389, 222, -8, 455, -27, 473, -77, 0, 0, 0, 1
BARO, 168977462, 0.812767, 100972.9, 44.45, 0.8255783
CTUN, 168977609, 0, 0, 129, 0.5336482, 0.5756965, 0.81, 0.00, 0.00, -4, -5
DU32, 168977648, 7, 386552
ATT, 168982611, 0.09, -0.10, -3.13, -3.92, 340.10, 340.14, 0.06, 0.01
EKF1, 168982629, -0.10, -3.92, 340.14, 0.8283466, -0.3549895, 0.05774831, 0.2114397, -0.4491942, -0.5759455, -0.10, 0.09, -0.14
EKF2, 168982636, 46, 4, 9, 0.00, 0.00, 218, -56, 470, 0, 0, 0
EKF3, 168982641, 0.97, -0.33, -0.06, 0.57, -0.21, 0.23, -2, 2, 5, 0.00
EKF4, 168982665, 0.20, 0.12, 0.02, 0.01, 0.01, 0.03, 0.00, 0, 0, 0, 16, 9023, 0
AHR2, 168982676, 0.54, -2.00, 341.57, 7.46, 42.3564032, -71.2992489
POS, 168982704, 42.3564089, -71.299252, 7.22, 0.5759455
RATE, 168982710, 212.0513, 18.63058, 31, 888.501, -26.74073, 170, -23.10328, 100.5346, -30, 0.6905441, 0.6526947, 129
RCIN, 168982779, 1479, 1509, 992, 1517, 1146, 993, 992, 992, 0, 0, 0, 0, 0, 0
RCOU, 168982855, 1169, 1131, 1182, 1123, 0, 0, 0, 0, 1000, 1600, 0, 0
NTUN, 168982872, 102.5524, -78.51266, 21.14396, -44.91941, 81.60091, -33.72732, 82.83466, -35.49895, 43.43987, -11.43122
VIBE, 168982876, 0.6627259, 1.526262, 0.9192983, 0, 0, 0
IMU, 168982891, 0.001022752, -0.0003201633, 0.01461294, 0.03598338, -0.1401231, -9.76586, 0, 0, 43.24377, 1, 1
IMU2, 168982891, 0.001892783, -0.005678796, 0.01557855, -0.08702915, -0.1022524, -9.753426, 0, 0, 44.75, 1, 1
IMU, 169002325, 0.003740035, -0.0101523, 0.009218696, 0.07625434, -0.05736614, -9.71823, 0, 0, 43.15512, 1, 1
IMU2, 169002325, 0.0004973173, -0.008465327, -0.004599049, 0.07483017, -0.1447675, -9.641874, 0, 0, 44.75, 1, 1
IMU, 169022301, -0.00128304, 0.008081898, -0.01268208, -0.05076772, -0.1725221, -9.755758, 0, 0, 43.24377, 1, 1
IMU2, 169022301, 0.001900689, 0.009410924, -0.01736023, -0.08597095, -0.01565918, -9.527028, 0, 0, 44.75, 1, 1
GPS, 169037579, 3, 71645200, 1866, 9, 1.08, 42.3564032, -71.2992489, -0.13, 6.04, 0.09, 200.14, 0.01, 1
GPA, 169037583, 1.09, 1.13, 1.46, 0.47
IMU, 169043354, 0.0001402188, 0.008721379, -0.01171933, 0.07482847, -0.1985204, -9.775504, 0, 0, 43.15512, 1, 1
IMU2, 169043354, 0.0004581207, 0.003872535, -0.0123258, 0.1182121, -0.06730491, -9.713956, 0, 0, 44.75, 1, 1
IMU, 169062342, -0.003961785, -0.004979592, 0.005531114, 0.01039929, -0.1254115, -9.679786, 0, 0, 43.19945, 1, 1
IMU2, 169062342, -0.007838715, -0.003551415, -0.008485113, -0.1038126, -0.2388003, -9.558241, 0, 0, 44.75, 1, 1
CURR, 169077513, 129, 1209, 212, 5196, 21.27166, 0
POWR, 169077517, 5.19, 0.06, 1
MAG, 169077549, 248, 21, 451, -69, 55, 19, 0, 0, 0, 1
MAG2, 169077553, 223, -7, 451, -27, 473, -77, 0, 0, 0, 1
BARO, 169077589, 0.2089972, 100979.4, 44.45, 0.6922453
CTUN, 169077600, 0, 0, 129, 0.5710242, 0.5812595, 0.20, 0.00, 0.00, -1, -5
ATT, 169083013, 0.20, -0.08, -2.72, -3.89, 340.10, 340.14, 0.05, 0.01
EKF1, 169083038, -0.08, -3.89, 340.14, 0.8228276, -0.3596288, 0.05870296, 0.2251527, -0.4591743, -0.5801793, -0.10, 0.08, -0.14
EKF2, 169083049, 46, 4, 9, 0.00, 0.00, 218, -56, 470, 0, 0, 0
EKF3, 169083054, 0.93, -0.32, 0.04, 0.62, -0.24, -0.36, -6, 2, 9, 0.00
EKF4, 169083079, 0.19, 0.13, 0.03, 0.04, 0.01, 0.06, 0.00, 0, 0, 0, 16, 9023, 0
AHR2, 169083090, 0.55, -2.01, 341.57, 6.85, 42.3564032, -71.2992489
POS, 169083117, 42.3564091, -71.2992521, 7.23, 0.5801793
RATE, 169083159, 313.4526, 36.46572, -15, 1315.959, -19.62773, 233, -22.90766, 73.77852, -17, 43.85851, 2.039146, 129
RCIN, 169083175, 1482, 1508, 992, 1517, 1147, 992, 992, 992, 0, 0, 0, 0, 0, 0
RCOU, 169083283, 1213, 1167, 1246, 1123, 0, 0, 0, 0, 1000, 1600, 0, 0
NTUN, 169083301, 101.9496, -78.25989, 22.51527, -45.91743, 79.62142, -32.47064, 82.28276, -35.96288, 41.57244, -9.936219
VIBE, 169083305, 0.9076445, 1.582618, 1.241917, 0, 0, 0
IMU, 169083320, 0.005166634, 0.001710449, 0.009713305, -0.1133307, 0.0271676, -9.778275, 0, 0, 43.19945, 1, 1
IMU2, 169083320, 0.003964951, -0.005423447, 0.01111539, -0.1457761, 0.03045103, -9.756234, 0, 0, 44.75, 1, 1
IMU, 169102281, -0.002720001, -0.005359432, 0.009926276, 0.1782462, -0.07650785, -9.770288, 0, 0, 43.19945, 1, 1
