FMT, 128, 89, FMT, BBnNZ, Type,Length,Name,Format,Columns
FMT, 129, 31, PARM, QNf, TimeUS,Name,Value
FMT, 130, 46, GPS, QBIHBcLLefffB, TimeUS,Status,GMS,GWk,NSats,HDop,Lat,Lng,Alt,Spd,GCrs,VZ,U
FMT, 131, 46, GPS2, QBIHBcLLefffB, TimeUS,Status,GMS,GWk,NSats,HDop,Lat,Lng,Alt,Spd,GCrs,VZ,U
FMT, 132, 46, GPSB, QBIHBcLLefffB, TimeUS,Status,GMS,GWk,NSats,HDop,Lat,Lng,Alt,Spd,GCrs,VZ,U
FMT, 193, 24, GPA, QCCCCBI, TimeUS,VDop,HAcc,VAcc,SAcc,VV,SMS
FMT, 194, 24, GPA2, QCCCCBI, TimeUS,VDop,HAcc,VAcc,SAcc,VV,SMS
FMT, 195, 24, GPAB, QCCCCBI, TimeUS,VDop,HAcc,VAcc,SAcc,VV,SMS
FMT, 133, 53, IMU, QffffffIIfBBHH, TimeUS,GyrX,GyrY,GyrZ,AccX,AccY,AccZ,EG,EA,T,GH,AH,GHz,AHz
FMT, 134, 75, MSG, QZ, TimeUS,Message
FMT, 135, 39, RCIN, QHHHHHHHHHHHHHH, TimeUS,C1,C2,C3,C4,C5,C6,C7,C8,C9,C10,C11,C12,C13,C14
FMT, 136, 39, RCOU, QHHHHHHHHHHHHHH, TimeUS,C1,C2,C3,C4,C5,C6,C7,C8,C9,C10,C11,C12,C13,C14
FMT, 137, 15, RSSI, Qf, TimeUS,RXRSSI
FMT, 139, 37, BARO, QffcfIff, TimeUS,Alt,Press,Temp,CRt,SMS,Offset,GndTemp
FMT, 140, 21, POWR, QffH, TimeUS,Vcc,VServo,Flags
FMT, 143, 45, CMD, QHHHfffffff, TimeUS,CTot,CNum,CId,Prm1,Prm2,Prm3,Prm4,Lat,Lng,Alt
FMT, 144, 20, RAD, QBBBBBHH, TimeUS,RSSI,RemRSSI,TxBuf,Noise,RemNoise,RxErrors,Fixed
FMT, 146, 43, CAM, QIHLLeeeccC, TimeUS,GPSTime,GPSWeek,Lat,Lng,Alt,RelAlt,GPSAlt,Roll,Pitch,Yaw
FMT, 232, 43, TRIG, QIHLLeeeccC, TimeUS,GPSTime,GPSWeek,Lat,Lng,Alt,RelAlt,GPSAlt,Roll,Pitch,Yaw
FMT, 162, 30, ARSP, QffcffB, TimeUS,Airspeed,DiffPress,Temp,RawPress,Offset,U
FMT, 164, 45, CURR, QfffcHHHHHHHHHH, TimeUS,Volt,Curr,CurrTot,Temp,V1,V2,V3,V4,V5,V6,V7,V8,V9,V10
FMT, 165, 45, CUR2, QfffcHHHHHHHHHH, TimeUS,Volt,Curr,CurrTot,Temp,V1,V2,V3,V4,V5,V6,V7,V8,V9,V10
FMT, 163, 27, ATT, QccccCCCC, TimeUS,DesRoll,Roll,DesPitch,Pitch,DesYaw,Yaw,ErrRP,ErrYaw
FMT, 166, 34, MAG, QhhhhhhhhhBI, TimeUS,MagX,MagY,MagZ,OfsX,OfsY,OfsZ,MOfsX,MOfsY,MOfsZ,Health,S
FMT, 169, 14, MODE, QMBB, TimeUS,Mode,ModeNum,Rsn
FMT, 196, 17, RFND, QCBCB, TimeUS,Dist1,Orient1,Dist2,Orient2
FMT, 223, 33, DMS, IIIIIBBBBBBBBBB, TimeMS,N,Dp,RT,RS,Er,Fa,Fmn,Fmx,Pa,Pmn,Pmx,Sa,Smn,Smx
FMT, 240, 41, BCN, QBBfffffff, TimeUS,Health,Cnt,D0,D1,D2,D3,PosX,PosY,PosZ
FMT, 138, 53, IMU2, QffffffIIfBBHH, TimeUS,GyrX,GyrY,GyrZ,AccX,AccY,AccZ,EG,EA,T,GH,AH,GHz,AHz
FMT, 147, 53, IMU3, QffffffIIfBBHH, TimeUS,GyrX,GyrY,GyrZ,AccX,AccY,AccZ,EG,EA,T,GH,AH,GHz,AHz
FMT, 141, 45, AHR2, QccCfLLffff, TimeUS,Roll,Pitch,Yaw,Alt,Lat,Lng,Q1,Q2,Q3,Q4
FMT, 180, 31, POS, QLLfff, TimeUS,Lat,Lng,Alt,RelHomeAlt,RelOriginAlt
FMT, 142, 45, SIM, QccCfLLffff, TimeUS,Roll,Pitch,Yaw,Alt,Lat,Lng,Q1,Q2,Q3,Q4
FMT, 198, 51, NKF1, QccCfffffffccc, TimeUS,Roll,Pitch,Yaw,VN,VE,VD,dPD,PN,PE,PD,GX,GY,GZ
FMT, 199, 35, NKF2, QbccccchhhhhhB, TimeUS,AZbias,GSX,GSY,GSZ,VWN,VWE,MN,ME,MD,MX,MY,MZ,MI
FMT, 200, 33, NKF3, Qcccccchhhcc, TimeUS,IVN,IVE,IVD,IPN,IPE,IPD,IMX,IMY,IMZ,IYAW,IVT
FMT, 201, 35, NKF4, QcccccfbbHBHHb, TimeUS,SV,SP,SH,SM,SVT,errRP,OFN,OFE,FS,TS,SS,GPS,PI
FMT, 202, 40, NKF5, QBhhhcccCCfff, TimeUS,NI,FIX,FIY,AFI,HAGL,offset,RI,rng,Herr,eAng,eVel,ePos
FMT, 203, 51, NKF6, QccCfffffffccc, TimeUS,Roll,Pitch,Yaw,VN,VE,VD,dPD,PN,PE,PD,GX,GY,GZ
FMT, 204, 35, NKF7, QbccccchhhhhhB, TimeUS,AZbias,GSX,GSY,GSZ,VWN,VWE,MN,ME,MD,MX,MY,MZ,MI
FMT, 205, 33, NKF8, Qcccccchhhcc, TimeUS,IVN,IVE,IVD,IPN,IPE,IPD,IMX,IMY,IMZ,IYAW,IVT
FMT, 206, 35, NKF9, QcccccfbbHBHHb, TimeUS,SV,SP,SH,SM,SVT,errRP,OFN,OFE,FS,TS,SS,GPS,PI
FMT, 207, 36, NKF0, QBccCCcccccccc, TimeUS,ID,rng,innov,SIV,TR,BPN,BPE,BPD,OFH,OFL,OFN,OFE,OFD
FMT, 208, 27, NKQ1, Qffff, TimeUS,Q1,Q2,Q3,Q4
FMT, 209, 27, NKQ2, Qffff, TimeUS,Q1,Q2,Q3,Q4
FMT, 210, 51, XKF1, QccCfffffffccc, TimeUS,Roll,Pitch,Yaw,VN,VE,VD,dPD,PN,PE,PD,GX,GY,GZ
FMT, 211, 34, XKF2, QccccchhhhhhB, TimeUS,AX,AY,AZ,VWN,VWE,MN,ME,MD,MX,MY,MZ,MI
FMT, 212, 33, XKF3, Qcccccchhhcc, TimeUS,IVN,IVE,IVD,IPN,IPE,IPD,IMX,IMY,IMZ,IYAW,IVT
FMT, 213, 35, XKF4, QcccccfbbHBHHb, TimeUS,SV,SP,SH,SM,SVT,errRP,OFN,OFE,FS,TS,SS,GPS,PI
FMT, 214, 40, XKF5, QBhhhcccCCfff, TimeUS,NI,FIX,FIY,AFI,HAGL,offset,RI,rng,Herr,eAng,eVel,ePos
FMT, 215, 51, XKF6, QccCfffffffccc, TimeUS,Roll,Pitch,Yaw,VN,VE,VD,dPD,PN,PE,PD,GX,GY,GZ
FMT, 216, 34, XKF7, QccccchhhhhhB, TimeUS,AX,AY,AZ,VWN,VWE,MN,ME,MD,MX,MY,MZ,MI
FMT, 217, 33, XKF8, Qcccccchhhcc, TimeUS,IVN,IVE,IVD,IPN,IPE,IPD,IMX,IMY,IMZ,IYAW,IVT
FMT, 218, 35, XKF9, QcccccfbbHBHHb, TimeUS,SV,SP,SH,SM,SVT,errRP,OFN,OFE,FS,TS,SS,GPS,PI
FMT, 219, 36, XKF0, QBccCCcccccccc, TimeUS,ID,rng,innov,SIV,TR,BPN,BPE,BPD,OFH,OFL,OFN,OFE,OFD
FMT, 220, 27, XKQ1, Qffff, TimeUS,Q1,Q2,Q3,Q4
FMT, 221, 27, XKQ2, Qffff, TimeUS,Q1,Q2,Q3,Q4
FMT, 222, 35, XKFD, Qffffff, TimeUS,IX,IY,IZ,IVX,IVY,IVZ
FMT, 148, 34, TERR, QBLLHffHH, TimeUS,Status,Lat,Lng,Spacing,TerrH,CHeight,Pending,Loaded
FMT, 149, 18, UBX1, QBHBBH, TimeUS,Instance,noisePerMS,jamInd,aPower,agcCnt
FMT, 150, 16, UBX2, QBbBbB, TimeUS,Instance,ofsI,magI,ofsQ,magQ
FMT, 151, 18, UBY1, QBHBBH, TimeUS,Instance,noisePerMS,jamInd,aPower,agcCnt
FMT, 152, 16, UBY2, QBbBbB, TimeUS,Instance,ofsI,magI,ofsQ,magQ
FMT, 170, 42, GRAW, QIHBBddfBbB, TimeUS,WkMS,Week,numSV,sv,cpMes,prMes,doMes,mesQI,cno,lli
FMT, 171, 24, GRXH, QdHbBB, TimeUS,rcvTime,week,leapS,numMeas,recStat
FMT, 172, 41, GRXS, QddfBBBHBBBBB, TimeUS,prMes,cpMes,doMes,gnss,sv,freq,lock,cno,prD,cpD,doD,trk
FMT, 173, 63, SBFE, QIHBBdddfffff, TimeUS,TOW,WN,Mode,Err,Lat,Lng,Height,Undul,Vn,Ve,Vu,COG
FMT, 153, 19, ESC1, Qcccc, TimeUS,RPM,Volt,Curr,Temp
FMT, 154, 19, ESC2, Qcccc, TimeUS,RPM,Volt,Curr,Temp
FMT, 155, 19, ESC3, Qcccc, TimeUS,RPM,Volt,Curr,Temp
FMT, 156, 19, ESC4, Qcccc, TimeUS,RPM,Volt,Curr,Temp
FMT, 157, 19, ESC5, Qcccc, TimeUS,RPM,Volt,Curr,Temp
FMT, 158, 19, ESC6, Qcccc, TimeUS,RPM,Volt,Curr,Temp
FMT, 159, 19, ESC7, Qcccc, TimeUS,RPM,Volt,Curr,Temp
FMT, 160, 19, ESC8, Qcccc, TimeUS,RPM,Volt,Curr,Temp
FMT, 167, 34, MAG2, QhhhhhhhhhBI, TimeUS,MagX,MagY,MagZ,OfsX,OfsY,OfsZ,MOfsX,MOfsY,MOfsZ,Health,S
FMT, 168, 34, MAG3, QhhhhhhhhhBI, TimeUS,MagX,MagY,MagZ,OfsX,OfsY,OfsZ,MOfsX,MOfsY,MOfsZ,Health,S
FMT, 174, 31, ACC1, QQfff, TimeUS,SampleUS,AccX,AccY,AccZ
FMT, 175, 31, ACC2, QQfff, TimeUS,SampleUS,AccX,AccY,AccZ
FMT, 176, 31, ACC3, QQfff, TimeUS,SampleUS,AccX,AccY,AccZ
FMT, 177, 31, GYR1, QQfff, TimeUS,SampleUS,GyrX,GyrY,GyrZ
FMT, 178, 31, GYR2, QQfff, TimeUS,SampleUS,GyrX,GyrY,GyrZ
FMT, 179, 31, GYR3, QQfff, TimeUS,SampleUS,GyrX,GyrY,GyrZ
FMT, 181, 35, PIDR, Qffffff, TimeUS,Des,P,I,D,FF,AFF
FMT, 182, 35, PIDP, Qffffff, TimeUS,Des,P,I,D,FF,AFF
FMT, 183, 35, PIDY, Qffffff, TimeUS,Des,P,I,D,FF,AFF
FMT, 184, 35, PIDA, Qffffff, TimeUS,Des,P,I,D,FF,AFF
FMT, 185, 35, PIDS, Qffffff, TimeUS,Des,P,I,D,FF,AFF
FMT, 186, 35, PIDL, Qffffff, TimeUS,Des,P,I,D,FF,AFF
FMT, 161, 37, BAR2, QffcfIff, TimeUS,Alt,Press,Temp,CRt,SMS,Offset,GndTemp
FMT, 197, 37, BAR3, QffcfIff, TimeUS,Alt,Press,Temp,CRt,SMS,Offset,GndTemp
FMT, 187, 35, VIBE, QfffIII, TimeUS,VibeX,VibeY,VibeZ,Clip0,Clip1,Clip2
FMT, 188, 47, IMT, Qfffffffff, TimeUS,DelT,DelvT,DelaT,DelAX,DelAY,DelAZ,DelVX,DelVY,DelVZ
FMT, 189, 47, IMT2, Qfffffffff, TimeUS,DelT,DelvT,DelaT,DelAX,DelAY,DelAZ,DelVX,DelVY,DelVZ
FMT, 190, 47, IMT3, Qfffffffff, TimeUS,DelT,DelvT,DelaT,DelAX,DelAY,DelAZ,DelVX,DelVY,DelVZ
FMT, 191, 24, ORGN, QBLLe, TimeUS,Type,Lat,Lng,Alt
FMT, 192, 19, RPM, Qff, TimeUS,rpm1,rpm2
FMT, 233, 47, GMB1, Iffffffffff, TimeMS,dt,dax,day,daz,dvx,dvy,dvz,jx,jy,jz
FMT, 234, 44, GMB2, IBfffffffff, TimeMS,es,ex,ey,ez,rx,ry,rz,tx,ty,tz
FMT, 235, 13, GMB3, Ihhh, TimeMS,rl_torque_cmd,el_torque_cmd,az_torque_cmd
FMT, 236, 59, RATE, Qffffffffffff, TimeUS,RDes,R,ROut,PDes,P,POut,YDes,Y,YOut,ADes,A,AOut
FMT, 237, 23, RALY, QBBLLh, TimeUS,Tot,Seq,Lat,Lng,Alt
FMT, 238, 43, VISO, Qffffffff, TimeUS,dt,AngDX,AngDY,AngDZ,PosDX,PosDY,PosDZ,conf
FMT, 224, 23, SBPH, QIII, TimeUS,CrcError,LastInject,IARhyp
FMT, 229, 80, SBR1, QHHBZ, TimeUS,msg_type,sender_id,msg_len,d1
FMT, 230, 205, SBR2, QHZZZ, TimeUS,msg_type,d2,d3,d4
FMT, 25, 41, ATUN, QBBfffffff, TimeUS,Axis,TuneStep,Targ,Min,Max,RP,RD,SP,ddt
FMT, 26, 19, ATDE, Qff, TimeUS,Angle,Rate
FMT, 31, 22, PTUN, QBfHHH, TimeUS,Param,TunVal,CtrlIn,TunLo,TunHi
FMT, 12, 28, OF, QBffff, TimeUS,Qual,flowX,flowY,bodyX,bodyY
FMT, 5, 51, NTUN, Qffffffffff, TimeUS,DPosX,DPosY,PosX,PosY,DVelX,DVelY,VelX,VelY,DAccX,DAccY
FMT, 4, 51, CTUN, Qffffffeccfhh, TimeUS,ThI,ABst,ThO,ThH,DAlt,Alt,BAlt,DSAlt,SAlt,TAlt,DCRt,CRt
FMT, 6, 32, PM, QHHIhBHII, TimeUS,NLon,NLoop,MaxT,PMT,I2CErr,INSErr,LogDrop,Mem
FMT, 30, 27, MOTB, Qffff, TimeUS,LiftMax,BatVolt,BatRes,ThLimit
FMT, 13, 12, EV, QB, TimeUS,Id
FMT, 20, 14, D16, QBh, TimeUS,Id,Value
FMT, 21, 14, DU16, QBH, TimeUS,Id,Value
FMT, 22, 16, D32, QBi, TimeUS,Id,Value
FMT, 23, 16, DU32, QBI, TimeUS,Id,Value
FMT, 24, 16, DFLT, QBf, TimeUS,Id,Value
FMT, 19, 13, ERR, QBB, TimeUS,Subsys,ECode
FMT, 32, 19, HELI, Qff, TimeUS,DRRPM,ERRPM
FMT, 33, 29, PL, QBBffff, TimeUS,Heal,TAcq,pX,pY,vX,vY
FMT, 34, 36, GUID, QBffffff, TimeUS,Type,pX,pY,pZ,vX,vY,vZ
FMT, 35, 32, THRO, QBffffbbbb, TimeUS,Stage,Vel,VelZ,Acc,AccEfZ,Throw,AttOk,HgtOk,PosOk
FMT, 36, 56, PRX, QBfffffffffff, TimeUS,Health,D0,D45,D90,D135,D180,D225,D270,D315,DUp,CAn,CDis
EV, 86739846, 10
MODE, 86739857, PosHold, 16, 1
FMT, 254, 47, NKT1, QIffffffff, TimeUS,Cnt,IMUMin,IMUMax,EKFMin,EKFMax,AngMin,AngMax,VelMin,VelM
FMT, 253, 47, NKT2, QIffffffff, TimeUS,Cnt,IMUMin,IMUMax,EKFMin,EKFMax,AngMin,AngMax,VelMin,VelM
FMT, 252, 31, CTRL, Qfffff, TimeUS,RMSRollP,RMSRollD,RMSPitchP,RMSPitchD,RMSYaw
CURR, 86864497, 23.22936, 0.3527516, 8.02469, 0.00, 0, 0, 0, 0, 0, 0, 0, 0, 0, 0
POWR, 86864511, 5.167529, 5.462, 3
MAG, 86864928, -34, 160, 450, -50, -56, -81, 0, 0, 0, 1, 86864907
MAG2, 86864928, -30, 125, 294, -81, -78, -2, 0, 0, 0, 1, 86864915
MAG3, 86864928, 52, -137, 628, 0, 0, 0, 0, 0, 0, 1, 86864922
ATT, 86865051, 1.22, 1.22, -3.80, -3.80, 263.12, 263.13, 0.00, 0.00
NKF1, 86865063, 1.22, -3.80, 263.12, 0.02514466, -0.01371332, -0.04224575, 0, -0.4690101, -0.4688192, -0.5704155, 0.00, 0.01, -0.02
NKF2, 86865063, 11, 0.00, 0.00, 0.00, 0.00, 0.00, 155, 45, 446, 0, 0, 0, 0
NKF3, 86865063, 0.02, -0.01, -0.02, 0.04, -0.05, 0.04, 0, 0, 0, -0.60, 0.00
NKF4, 86865063, 0.00, 0.00, 0.00, 0.00, 0.00, 8.914798E-05, 0, 0, 0, 16, 9087, 0, 0
NKF5, 86865063, 0, 0, 0, 0, 0.09, -0.46, 0.04, 0.05, 0.14, 0.0002125934, 0.0009529848, 0.004968154
NKQ1, 86865063, 0.6632749, -0.01902457, -0.02977443, -0.7475413
NKF6, 86865063, 2.73, -2.67, 264.14, 0.2302221, 0.2509408, 0.08492111, 0, -0.2484147, -0.2242537, -0.3104375, 0.18, 0.24, 0.00
NKF7, 86865063, -12, 0.00, 0.00, 0.00, 0.00, 0.00, 150, 43, 448, 0, 0, 0, 0
NKF8, 86865063, 0.21, 0.21, 0.09, 0.17, 0.10, 0.26, 0, 0, 0, -0.72, 0.00
NKF9, 86865063, 0.06, 0.03, 0.01, 0.00, 0.00, 0.0008489396, 0, 0, 0, 16, 9087, 0, 0
NKQ2, 86865063, 0.6701123, -0.002556929, -0.03311293, -0.7415164
AHR2, 86865775, 1.93, -2.42, 266.00, 23.48, 46.9858986, -123.5917575, 0.6820526, -0.003961203, -0.02683015, -0.7308
POS, 86865802, 46.985899, -123.5917582, 23.03, 0.01041551, 0.5704155
RATE, 86865816, 0.003230249, 0.003230249, -0.0001509613, -0.01218787, -0.01218787, -6.198391E-05, -0.06324089, -0.06324089, 3.531548E-06, 2.070522, 2.070522, 0
MOTB, 86865839, 1, 1, 0, 1
RCIN, 86865853, 1494, 1493, 982, 2006, 1678, 1494, 982, 1494, 1494, 1494, 1494, 1494, 1494, 1494
RCOU, 86866075, 982, 982, 982, 982, 982, 982, 0, 0, 0, 1750, 0, 0, 0, 0
NTUN, 86866102, -46.90101, -46.88192, -46.90101, -46.88192, 0, 0, 2.514466, -1.371332, 12.98652, -67.26427
VIBE, 86866115, 0.01714405, 0.02053653, 0.03428413, 0, 0, 0
CTRL, 86866137, 3.809664E-05, 0.00010111, 2.404436E-05, 6.183836E-05, 5.4619E-06
MSG, 86993044, APM:Copter V3.5.0-rc6 (efab409b)
MSG, 86993061, PX4: 8d505a02 NuttX: 1a99ba58
MSG, 86993107, PX4v2 00240021 30365111 35323931
MSG, 86993124, New mission
CMD, 86993144, 6, 0, 16, 0, 0, 0, 0, 46.9859, -123.5918, 23.02
CMD, 86993166, 6, 1, 16, 0, 0, 0, 0, 46.98586, -123.5921, 20
CMD, 86993187, 6, 2, 16, 0, 0, 0, 0, 46.98549, -123.5919, 15
CMD, 86993214, 6, 3, 16, 0, 0, 0, 0, 46.98562, -123.5916, 20
CMD, 86993235, 6, 4, 16, 0, 0, 0, 0, 46.98595, -123.5915, 20
CMD, 86993256, 6, 5, 20, 0, 0, 0, 0, 0, 0, 0
MSG, 86993424, Frame: HEXA
MODE, 86993489, PosHold, 16, 1
ORGN, 86993502, 0, 46.9859032, -123.5917521, 22.46
ORGN, 86993514, 1, 46.985899, -123.5917582, 23.02
MSG, 86993729, GPS 1: detected as u-blox at 115200 baud
MSG, 86993772, u-blox 1 HW: 00080000 SW: EXT CORE 3.01 (107900)
GPS, 86995935, 3, 514105200, 1949, 12, 0.97, 46.9858986, -123.5917575, 23.70, 0.011, 241.2486, 0.007, 1
GPA, 86995935, 1.40, 0.62, 1.08, 0.21, 1, 86995
IMU, 87031130, 0.0009387411, -0.0001332997, -0.001340164, -0.658156, -0.1835587, -9.661213, 0, 0, 37.8691, 1, 1, 1000, 1000
IMU2, 87031130, 0.006306225, 0.009706969, -0.0006947644, -0.612671, -0.2383757, -9.80204, 0, 0, 0, 1, 1, 773, 980
IMU3, 87031130, -0.0001148249, 0.003127154, 8.15549E-05, -0.4910688, -0.2683285, -9.846137, 0, 0, 35.41254, 1, 1, 1001, 1001
BARO, 87033214, 0.4346663, 101836, 34.45, 0.2009282, 87033, 0, 28.76829
BAR2, 87033214, 0.6727637, 101819, 32.00, 0.2009282, 87033, 0, 28.76829
CTUN, 87033261, 0, 0, 0, 0.1998871, 0.5735613, 0.5735613, 0.43, 0.00, 0.00, 0, 3, 3
CURR, 87037299, 23.22936, 0.3171477, 8.039914, 0.00, 0, 0, 0, 0, 0, 0, 0, 0, 0, 0
POWR, 87037312, 5.161084, 5.457, 3
MAG, 87037353, -34, 160, 450, -50, -56, -81, 0, 0, 0, 1, 87037332
MAG2, 87037353, -32, 125, 294, -81, -78, -2, 0, 0, 0, 1, 87037339
MAG3, 87037353, 52, -136, 626, 0, 0, 0, 0, 0, 0, 1, 87037347
ATT, 87037849, 1.22, 1.22, -3.80, -3.80, 263.12, 263.13, 0.00, 0.00
NKF1, 87037861, 1.22, -3.80, 263.12, 0.02670686, -0.01334312, -0.03884403, 0, -0.4689157, -0.4663975, -0.5737559, 0.00, 0.01, -0.02
NKF2, 87037861, 10, 0.00, 0.00, 0.00, 0.00, 0.00, 155, 45, 446, 0, 0, 0, 0
NKF3, 87037861, 0.01, -0.01, -0.02, 0.03, -0.05, 0.07, 0, 0, 0, -0.60, 0.00
NKF4, 87037861, 0.00, 0.00, 0.00, 0.00, 0.00, 9.034566E-05, 0, 0, 0, 16, 9087, 0, 0
NKF5, 87037861, 0, 0, 0, 0, 0.10, -0.46, 0.04, 0.05, 0.14, 0.0002566916, 0.00205699, 0.007271343
NKQ1, 87037861, 0.6632581, -0.01900602, -0.02976876, -0.7475569
NKF6, 87037861, 2.76, -2.63, 264.14, 0.240803, 0.2559037, 0.08765174, 0, -0.2386461, -0.208319, -0.3070615, 0.16, 0.22, 0.00
NKF7, 87037861, -11, 0.00, 0.00, 0.00, 0.00, 0.00, 150, 43, 448, 0, 0, 0, 0
NKF8, 87037861, 0.19, 0.21, 0.08, 0.17, 0.10, 0.29, 0, 0, 0, -0.72, 0.00
NKF9, 87037861, 0.06, 0.03, 0.01, 0.00, 0.00, 0.0008519716, 0, 0, 0, 16, 9087, 0, 0
NKQ2, 87037861, 0.6701211, -0.002158031, -0.03308987, -0.7415107
AHR2, 87038205, 1.95, -2.42, 265.98, 23.45, 46.9858986, -123.5917575, 0.6819167, -0.003853765, -0.02689019, -0.7309253
POS, 87038232, 46.985899, -123.5917582, 23.03, 0.01375593, 0.5737559
RATE, 87038246, 0.06771148, 0.06771148, 0.0001674598, -0.02697542, -0.02697542, -0.0001011413, -0.08399569, -0.08399569, 9.182235E-06, -3.229141, -3.229141, 0
MOTB, 87038269, 1, 1, 0, 1
RCIN, 87038283, 1494, 1493, 982, 2006, 1678, 1494, 982, 1494, 1494, 1494, 1494, 1494, 1494, 1494
RCOU, 87038362, 982, 982, 982, 982, 982, 982, 0, 0, 0, 1750, 0, 0, 0, 0
NTUN, 87038385, -46.89157, -46.63975, -46.89157, -46.63975, 0, 0, 2.670686, -1.334312, 13.00486, -67.23198
VIBE, 87038422, 0.02190081, 0.02092637, 0.03241215, 0, 0, 0
CTRL, 87038443, 3.471634E-05, 9.050874E-05, 2.789028E-05, 7.203333E-05, 6.10969E-06
IMU, 87071263, -0.0001374388, 9.906772E-05, -0.001024764, -0.660203, -0.1682287, -9.674068, 0, 0, 37.87192, 1, 1, 1000, 1000
IMU2, 87071263, 0.008311206, 0.005078132, -0.001145941, -0.6380777, -0.2979457, -9.869246, 0, 0, 0, 1, 1, 773, 980
IMU3, 87071263, 0.0002527415, 0.002042841, 0.00176433, -0.5001684, -0.2664031, -9.852244, 0, 0, 35.4143, 1, 1, 1001, 1001
IMU, 87112143, 0.0002169461, 0.0002526342, -0.0005150243, -0.6580928, -0.1641705, -9.681522, 0, 0, 37.87516, 1, 1, 1000, 1000
IMU2, 87112143, 0.005348657, 0.007771571, -0.002027257, -0.5798619, -0.3240826, -9.872171, 0, 0, 0, 1, 1, 773, 980
IMU3, 87112143, -0.0008199199, 0.002364866, 0.001074431, -0.4835913, -0.2636642, -9.842319, 0, 0, 35.41578, 1, 1, 1001, 1001
UBX1, 87116224, 0, 102, 4, 1, 2028
BARO, 87133951, 0.6063179, 101834, 34.46, -0.1514369, 87133, 0, 28.76829
BAR2, 87133951, 0.6340037, 101819.4, 32.01, -0.1514369, 87133, 0, 28.76829
CTUN, 87134158, 0, 0, 0, 0.1998871, 0.5747457, 0.5747457, 0.60, 0.00, 0.00, 0, 3, 3
CURR, 87138300, 23.21968, 0.3388752, 8.049422, 0.00, 0, 0, 0, 0, 0, 0, 0, 0, 0, 0
POWR, 87138318, 5.170752, 5.474, 3
MAG, 87138358, -34, 159, 450, -50, -56, -81, 0, 0, 0, 1, 87138338
MAG2, 87138358, -32, 125, 294, -81, -78, -2, 0, 0, 0, 1, 87138345
MAG3, 87138358, 54, -142, 625, 0, 0, 0, 0, 0, 0, 1, 87138353
ATT, 87138790, 1.22, 1.22, -3.80, -3.80, 263.12, 263.13, 0.00, 0.00
NKF1, 87138802, 1.22, -3.80, 263.12, 0.02685753, -0.01234417, -0.03614349, 0, -0.4703536, -0.4628754, -0.5749266, 0.00, 0.01, -0.02
NKF2, 87138802, 10, 0.00, 0.00, 0.00, 0.00, 0.00, 155, 45, 446, 0, 0, 0, 0
NKF3, 87138802, 0.01, 0.00, -0.04, 0.03, -0.04, 0.07, 0, 0, 0, -0.28, 0.00
NKF4, 87138802, 0.01, 0.00, 0.00, 0.00, 0.00, 8.481612E-05, 0, 0, 0, 16, 9087, 0, 0
NKF5, 87138802, 0, 0, 0, 0, 0.10, -0.46, 0.05, 0.05, 0.14, 0.0002746824, 0.003010714, 0.005978127
NKQ1, 87138802, 0.6632413, -0.01900885, -0.02975255, -0.7475724
NKF6, 87138802, 2.77, -2.62, 264.14, 0.2411072, 0.2522309, 0.08335231, 0, -0.2449177, -0.2107972, -0.3098409, 0.17, 0.23, 0.00
NKF7, 87138802, -12, 0.00, 0.00, 0.00, 0.00, 0.00, 150, 43, 448, 0, 0, 0, 0
NKF8, 87138802, 0.19, 0.22, 0.06, 0.17, 0.10, 0.29, 0, 0, 0, -0.32, 0.00
NKF9, 87138802, 0.06, 0.03, 0.01, 0.00, 0.00, 0.0008505278, 0, 0, 0, 16, 9087, 0, 0
NKQ2, 87138802, 0.6701277, -0.002068129, -0.03311569, -0.7415039
AHR2, 87139139, 1.95, -2.43, 265.97, 23.62, 46.9858986, -123.5917575, 0.6818373, -0.003887164, -0.02694863, -0.730997
POS, 87139166, 46.985899, -123.5917581, 23.03, 0.01492657, 0.5749266
RATE, 87139184, 0.006726015, 0.006726015, 0.0001884546, 0.007183419, 0.007183419, 4.974916E-05, -0.06562916, -0.06562916, 7.780506E-06, -0.773716, -0.773716, 0
MOTB, 87139207, 1, 1, 0, 1
RCIN, 87139220, 1494, 1493, 982, 2006, 1678, 1494, 982, 1494, 1494, 1494, 1494, 1494, 1494, 1494
RCOU, 87139293, 982, 982, 982, 982, 982, 982, 0, 0, 0, 1750, 0, 0, 0, 0
NTUN, 87139317, -47.03536, -46.28754, -47.03536, -46.28754, 0, 0, 2.685753, -1.234417, 12.97813, -67.21213
VIBE, 87139329, 0.02252988, 0.01903932, 0.02884411, 0, 0, 0
CTRL, 87139351, 3.291632E-05, 8.271715E-05, 2.440224E-05, 6.330772E-05, 6.071828E-06
IMU, 87151335, 3.1493E-05, -0.0003597251, -0.002015398, -0.6393963, -0.1689794, -9.65464, 0, 0, 37.87844, 1, 1, 1000, 1000
IMU2, 87151335, 0.007707843, 0.005505178, 0.004047026, -0.6899729, -0.3165835, -9.855226, 0, 0, 0, 1, 1, 773, 980
IMU3, 87151335, 0.0009492919, 0.001323936, 0.0005456047, -0.4942359, -0.2608628, -9.83472, 0, 0, 35.4176, 1, 1, 1001, 1001
IMU, 87191922, 0.000847337, 0.0001835539, -0.00042992, -0.6546918, -0.1692055, -9.685983, 0, 0, 37.88111, 1, 1, 1000, 1000
IMU2, 87191922, 0.006924866, 0.002239877, -0.0003891426, -0.6242927, -0.2883752, -9.915484, 0, 0, 0, 1, 1, 773, 980
IMU3, 87191922, 0.0007489918, 0.002650706, -6.286565E-05, -0.4975672, -0.2708934, -9.858034, 0, 0, 35.41913, 1, 1, 1001, 1001
GPS, 87196480, 3, 514105400, 1949, 12, 0.97, 46.9858986, -123.5917574, 23.72, 0.021, 241.2486, 0.042, 1
GPA, 87196480, 1.40, 0.62, 1.08, 0.24, 1, 87196
IMU, 87231484, 0.0007703201, 0.0003990775, -0.001833092, -0.6553446, -0.1714943, -9.674658, 0, 0, 37.88406, 1, 1, 1000, 1000
IMU2, 87231484, 0.005916224, 0.009136146, 0.0003962143, -0.6566637, -0.3798569, -9.870586, 0, 0, 0, 1, 1, 773, 980
IMU3, 87231484, 0.0003968806, 0.002775731, -0.0001434083, -0.4737421, -0.2587062, -9.845537, 0, 0, 35.42081, 1, 1, 1001, 1001
BARO, 87236687, 0.5980122, 101834.1, 34.46, -0.1449852, 87236, 0, 28.76829
BAR2, 87236687, 0.4900378, 101821.1, 32.01, -0.1449852, 87236, 0, 28.76829
CTUN, 87236802, 0, 0, 0, 0.1998871, 0.5744802, 0.5744802, 0.59, 0.00, 0.00, 0, 3, 3
CURR, 87239090, 23.22733, 0.3155045, 8.058256, 0.00, 0, 0, 0, 0, 0, 0, 0, 0, 0, 0
POWR, 87239104, 5.172363, 5.457, 3
MAG, 87239144, -35, 159, 449, -50, -56, -81, 0, 0, 0, 1, 87239123
MAG2, 87239144, -30, 124, 294, -81, -78, -2, 0, 0, 0, 1, 87239131
MAG3, 87239144, 50, -141, 627, 0, 0, 0, 0, 0, 0, 1, 87239138
ATT, 87239261, 1.22, 1.22, -3.80, -3.80, 263.11, 263.12, 0.00, 0.00
NKF1, 87239482, 1.22, -3.80, 263.11, 0.02673632, -0.01182929, -0.03246808, 0, -0.4713023, -0.4596752, -0.5745777, 0.00, 0.01, -0.02
NKF2, 87239482, 10, 0.00, 0.00, 0.00, 0.00, 0.00, 155, 45, 446, 0, 0, 0, 0
NKF3, 87239482, 0.01, 0.00, -0.04, 0.03, -0.04, -0.13, 0, 0, 0, 0.37, 0.00
NKF4, 87239482, 0.01, 0.00, 0.00, 0.00, 0.00, 7.152822E-05, 0, 0, 0, 16, 9087, 0, 0
NKF5, 87239482, 0, 0, 0, 0, 0.09, -0.46, 0.05, 0.05, 0.14, 0.0002208805, 0.001671443, 0.005063409
NKQ1, 87239482, 0.6632189, -0.01899748, -0.02977418, -0.7475917
NKF6, 87239482, 2.78, -2.63, 264.15, 0.2335406, 0.250778, 0.079409, 0, -0.252388, -0.2154052, -0.3120748, 0.18, 0.24, 0.00
NKF7, 87239482, -12, 0.00, 0.00, 0.00, 0.00, 0.00, 150, 43, 448, 0, 0, 0, 0
NKF8, 87239482, 0.18, 0.22, 0.02, 0.17, 0.10, 0.09, 0, 0, 0, 0.41, 0.00
NKF9, 87239482, 0.06, 0.03, 0.00, 0.00, 0.00, 0.0008432834, 0, 0, 0, 16, 9087, 0, 0
NKQ2, 87239482, 0.6701549, -0.002050729, -0.03319339, -0.7414759
AHR2, 87239736, 1.96, -2.44, 265.96, 23.61, 46.9858986, -123.5917574, 0.6817611, -0.003917149, -0.02705473, -0.731064
POS, 87239763, 46.985899, -123.5917581, 23.03, 0.0145777, 0.5745777
RATE, 87239777, 0.1022065, 0.1022065, -4.475403E-05, -0.001346911, -0.001346911, 9.591735E-05, -0.05239114, -0.05239114, 2.434894E-06, -0.9137154, -0.9137154, 0
MOTB, 87239800, 1, 1, 0, 1
RCIN, 87239814, 1494, 1493, 982, 2006, 1678, 1494, 982, 1494, 1494, 1494, 1494, 1494, 1494, 1494
RCOU, 87240045, 982, 982, 982, 982, 982, 982, 0, 0, 0, 1750, 0, 0, 0, 0
NTUN, 87240069, -47.13023, -45.96752, -47.13023, -45.96752, 0, 0, 2.673632, -1.182929, 13.021, -67.22961
VIBE, 87240081, 0.01938141, 0.01940486, 0.03324293, 0, 0, 0
CTRL, 87240103, 3.043593E-05, 7.487421E-05, 2.611361E-05, 6.553594E-05, 7.647233E-06
IMU, 87272711, -0.001285051, 0.001156023, 0.000197328, -0.6548651, -0.1773714, -9.668341, 0, 0, 37.88708, 1, 1, 1000, 1000
IMU2, 87272711, 0.007322426, 0.007029555, 0.001382951, -0.6421952, -0.3778313, -9.998689, 0, 0, 0, 1, 1, 773, 980
IMU3, 87272711, -0.0002013847, 0.002760677, 0.0004228944, -0.5005783, -0.2633507, -9.846058, 0, 0, 35.42219, 1, 1, 1001, 1001
IMU, 87312734, 0.000189277, 0.0009319088, -0.0004682619, -0.6529596, -0.1802873, -9.657377, 0, 0, 37.88944, 1, 1, 1000, 1000
IMU2, 87312734, 0.005613705, 0.006133886, -0.003237593, -0.6194406, -0.3344795, -9.921487, 0, 0, 0, 1, 1, 773, 980
IMU3, 87312734, 0.0001118069, 0.003438217, 0.0001112946, -0.4794852, -0.2588341, -9.844176, 0, 0, 35.42416, 1, 1, 1001, 1001
BARO, 87337431, 0.3626833, 101836.8, 34.46, 0.06859332, 87337, 0, 28.76829
BAR2, 87337431, 0.5592521, 101820.3, 32.02, 0.06859332, 87337, 0, 28.76829
CTUN, 87337487, 0, 0, 0, 0.1998871, 0.5717727, 0.5717727, 0.36, 0.00, 0.00, 0, 2, 2
CURR, 87339372, 23.2249, 0.3181337, 8.067119, 0.00, 0, 0, 0, 0, 0, 0, 0, 0, 0, 0
POWR, 87339386, 5.177197, 5.472, 3
MAG, 87339622, -35, 160, 450, -50, -56, -81, 0, 0, 0, 1, 87339601
MAG2, 87339622, -29, 125, 294, -81, -78, -2, 0, 0, 0, 1, 87339609
MAG3, 87339622, 52, -138, 624, 0, 0, 0, 0, 0, 0, 1, 87339616
ATT, 87339763, 1.22, 1.22, -3.79, -3.79, 263.11, 263.12, 0.00, 0.00
NKF1, 87339775, 1.22, -3.79, 263.11, 0.02678489, -0.01083253, -0.02911965, 0, -0.4722752, -0.4560692, -0.5718309, 0.00, 0.01, -0.02
NKF2, 87339775, 11, 0.00, 0.00, 0.00, 0.00, 0.00, 155, 45, 446, 0, 0, 0, 0
NKF3, 87339775, 0.00, 0.00, -0.07, 0.03, -0.05, 0.04, 0, 0, 0, 0.39, 0.00
NKF4, 87339775, 0.01, 0.00, 0.00, 0.00, 0.00, 6.010379E-05, 0, 0, 0, 16, 9087, 0, 0
NKF5, 87339775, 0, 0, 0, 0, 0.09, -0.46, 0.05, 0.05, 0.14, 0.000211183, 0.001249943, 0.004599364
NKQ1, 87339775, 0.6632096, -0.01899505, -0.02972887, -0.7476019
NKF6, 87339775, 2.78, -2.64, 264.15, 0.2281465, 0.2466179, 0.07493917, 0, -0.2625266, -0.2230043, -0.3139604, 0.18, 0.24, 0.00
NKF7, 87339775, -12, 0.00, 0.00, 0.00, 0.00, 0.00, 150, 43, 448, 0, 0, 0, 0
NKF8, 87339775, 0.18, 0.22, 0.02, 0.17, 0.10, 0.27, 0, 0, 0, 0.41, 0.00
NKF9, 87339775, 0.06, 0.03, 0.01, 0.00, 0.00, 0.0008348942, 0, 0, 0, 16, 9087, 0, 0
NKQ2, 87339775, 0.6701471, -0.00213942, -0.03326906, -0.7414793
AHR2, 87340203, 1.96, -2.44, 265.94, 23.38, 46.9858986, -123.5917574, 0.6816692, -0.003937526, -0.02712867, -0.7311468
POS, 87340231, 46.985899, -123.5917581, 23.03, 0.01183094, 0.5718309
RATE, 87340244, -0.04363254, -0.04363254, -0.000123182, 0.03983088, 0.03983088, 9.355975E-05, -0.06461548, -0.06461548, 8.612881E-06, 1.269531, 1.269531, 0
MOTB, 87340268, 1, 1, 0, 1
RCIN, 87340281, 1494, 1493, 982, 2006, 1678, 1494, 982, 1494, 1494, 1494, 1494, 1494, 1494, 1494
RCOU, 87340360, 982, 982, 982, 982, 982, 982, 0, 0, 0, 1750, 0, 0, 0, 0
NTUN, 87340383, -47.22752, -45.60692, -47.22752, -45.60692, 0, 0, 2.678489, -1.083253, 12.96474, -67.1598
VIBE, 87340396, 0.01839539, 0.0205779, 0.03323905, 0, 0, 0
CTRL, 87340418, 3.103678E-05, 7.660954E-05, 2.419052E-05, 6.108405E-05, 7.668236E-06
IMU, 87352406, 0.0005667969, 0.0007403232, -0.001992735, -0.6596293, -0.1638991, -9.67569, 0, 0, 37.8913, 1, 1, 1000, 1000
IMU2, 87352406, 0.006195566, 0.008762201, 0.00151951, -0.6967381, -0.3268662, -9.910315, 0, 0, 0, 1, 1, 773, 980
IMU3, 87352406, 0.001191238, 0.00187003, -6.126438E-05, -0.4895328, -0.2620268, -9.857492, 0, 0, 35.42562, 1, 1, 1001, 1001
IMU, 87392870, 0.0004521994, 0.0005371248, -0.001623265, -0.6654311, -0.1751266, -9.685637, 0, 0, 37.89308, 1, 1, 1000, 1000
IMU2, 87392870, 0.006093257, 0.0082503, -0.001289852, -0.5857083, -0.2704532, -9.793251, 0, 0, 0, 1, 1, 773, 980
IMU3, 87392870, 0.0001518411, 0.002670313, 0.0002681651, -0.4895329, -0.2601691, -9.849852, 0, 0, 35.42628, 1, 1, 1001, 1001
GPS, 87397716, 3, 514105600, 1949, 12, 0.97, 46.9858987, -123.5917574, 23.70, 0.004, 241.2486, -0.017, 1
GPA, 87397716, 1.40, 0.62, 1.08, 0.20, 1, 87397
IMU, 87437765, -0.0008944833, -0.0009070814, -0.0004274247, -0.6666517, -0.1608838, -9.679855, 0, 0, 37.89559, 1, 1, 1000, 1000
IMU2, 87437765, 0.004678413, 0.008964526, 0.003700159, -0.6919633, -0.2392973, -9.977724, 0, 0, 0, 1, 1, 773, 980
IMU3, 87437765, -0.0003765048, 0.002271912, 0.0006293608, -0.5014966, -0.2577572, -9.854608, 0, 0, 35.42678, 1, 1, 1001, 1001
BARO, 87438877, 0.573095, 101834.4, 34.47, 0.130869, 87438, 0, 28.76829
BAR2, 87438877, 0.5647893, 101820.2, 32.02, 0.130869, 87438, 0, 28.76829
CTUN, 87439046, 0, 0, 0, 0.1998871, 0.5711743, 0.5711743, 0.57, 0.00, 0.00, 0, 2, 2
CURR, 87441686, 23.21877, 0.3505605, 8.077083, 0.00, 0, 0, 0, 0, 0, 0, 0, 0, 0, 0
POWR, 87441700, 5.167529, 5.452, 3
MAG, 87441740, -34, 160, 451, -50, -56, -81, 0, 0, 0, 1, 87441719
MAG2, 87441740, -31, 126, 295, -81, -78, -2, 0, 0, 0, 1, 87441727
MAG3, 87441740, 49, -138, 622, 0, 0, 0, 0, 0, 0, 1, 87441734
ATT, 87441858, 1.22, 1.22, -3.80, -3.80, 263.11, 263.12, 0.00, 0.00
NKF1, 87441870, 1.22, -3.80, 263.11, 0.02793973, -0.009897911, -0.02895192, 0, -0.4720249, -0.4537711, -0.5712321, 0.00, 0.01, -0.03
NKF2, 87441870, 11, 0.00, 0.00, 0.00, 0.00, 0.00, 155, 45, 446, 0, 0, 0, 0
NKF3, 87441870, 0.02, -0.01, -0.01, 0.02, -0.04, 0.03, 0, 0, 0, 0.45, 0.00
NKF4, 87441870, 0.00, 0.00, 0.00, 0.00, 0.00, 5.486759E-05, 0, 0, 0, 16, 9087, 0, 0
NKF5, 87441870, 0, 0, 0, 0, 0.10, -0.46, 0.05, 0.05, 0.14, 0.0002728475, 0.002764402, 0.005260156
NKQ1, 87441870, 0.663197, -0.01900695, -0.02972732, -0.7476128
NKF6, 87441870, 2.77, -2.64, 264.15, 0.2321899, 0.2449641, 0.07161521, 0, -0.2636533, -0.222233, -0.3157625, 0.18, 0.25, 0.00
NKF7, 87441870, -12, 0.00, 0.00, 0.00, 0.00, 0.00, 150, 43, 448, 0, 0, 0, 0
PM, 87673719, 94, 4000, 53717, 0, 0, 0, 128, 34800
DU32, 87679338, 7, 50718168
GPS, 87802068, 3, 514106000, 1949, 12, 0.97, 46.9858988, -123.5917572, 23.70, 0.033, 241.2486, 0.01, 1
GPA, 87802068, 1.40, 0.62, 1.08, 0.17, 1, 87802
IMU, 87802144, 0.0004494527, 0.00074604, -0.001531132, -0.6671454, -0.1683504, -9.674536, 0, 0, 37.91681, 1, 1, 1000, 1000
IMU2, 87802144, 0.007767528, 0.008138927, 0.001166922, -0.6285933, -0.2554088, -9.925827, 0, 0, 0, 1, 1, 773, 980
IMU3, 87802144, -0.0003979878, 0.002139023, 7.023194E-05, -0.4868562, -0.2677891, -9.851627, 0, 0, 35.43999, 1, 1, 1001, 1001
BARO, 87843061, 0.5149549, 101835.1, 34.49, 0.3420548, 87843, 0, 28.76829
BAR2, 87843061, 0.664458, 101819.1, 32.03, 0.3420548, 87843, 0, 28.76829
CTUN, 87843121, 0, 0, 0, 0.1998871, 0.5695084, 0.5695084, 0.51, 0.00, 0.00, 0, 2, 2
IMU, 87843193, -0.0003480963, 0.0005964885, -0.001158691, -0.6525128, -0.1783316, -9.674726, 0, 0, 37.91901, 1, 1, 1000, 1000
IMU2, 87843193, 0.007309299, 0.008505847, 0.0006612863, -0.6677775, -0.2574921, -9.992876, 0, 0, 0, 1, 1, 773, 980
IMU3, 87843193, 0.000649435, 0.002320031, 0.001218143, -0.4897104, -0.2583971, -9.847437, 0, 0, 35.44352, 1, 1, 1001, 1001
CURR, 87845488, 23.1539, 0.3476392, 8.11321, 0.00, 0, 0, 0, 0, 0, 0, 0, 0, 0, 0
POWR, 87845502, 5.146582, 5.457, 3
MAG, 87845990, -32, 160, 450, -50, -56, -81, 0, 0, 0, 1, 87845521
MAG2, 87845990, -31, 125, 294, -81, -78, -2, 0, 0, 0, 1, 87845806
MAG3, 87845990, 53, -142, 624, 0, 0, 0, 0, 0, 0, 1, 87845814
ATT, 87846115, 1.22, 1.22, -3.79, -3.79, 263.09, 263.10, 0.01, 0.00
NKF1, 87846127, 1.22, -3.79, 263.09, 0.02940685, -0.006202407, -0.02981264, 0, -0.4692607, -0.4423372, -0.5695681, 0.00, 0.01, -0.03
NKF2, 87846127, 11, 0.00, 0.00, 0.00, 0.00, 0.00, 155, 45, 446, 0, 0, 0, 0
NKF3, 87846127, 0.05, 0.00, -0.04, 0.01, -0.05, 0.09, 0, 0, 0, 0.44, 0.00
NKF4, 87846127, 0.01, 0.00, 0.00, 0.00, 0.00, 9.071912E-05, 0, 0, 0, 16, 9087, 0, 0
NKF5, 87846127, 0, 0, 0, 0, 0.09, -0.47, 0.04, 0.05, 0.14, 0.0003369726, 0.004116579, 0.003913785
NKQ1, 87846127, 0.663085, -0.0189673, -0.0296906, -0.7477145
NKF6, 87846127, 2.77, -2.65, 264.14, 0.2372761, 0.2451485, 0.05776768, 0, -0.2612511, -0.2134819, -0.3223344, 0.20, 0.26, 0.00
NKF7, 87846127, -13, 0.00, 0.00, 0.00, 0.00, 0.00, 150, 43, 448, 0, 0, 0, 0
NKF8, 87846127, 0.24, 0.23, 0.05, 0.14, 0.10, 0.32, 0, 0, 0, 0.49, 0.00
NKF9, 87846127, 0.07, 0.03, 0.02, 0.00, 0.00, 0.0008202048, 0, 0, 0, 16, 9087, 0, 0
NKQ2, 87846127, 0.6701421, -0.002252856, -0.03324807, -0.7414844
AHR2, 87846455, 1.95, -2.41, 265.88, 23.53, 46.9858988, -123.5917572, 0.6812816, -0.003820344, -0.02688665, -0.7315176
POS, 87846482, 46.985899, -123.5917579, 23.02, 0.00956811, 0.5695681
RATE, 87846496, -0.01042775, -0.01042775, -8.420358E-05, 0.02594218, 0.02594218, -5.153714E-05, -0.03333925, -0.03333925, -1.29447E-06, 0.9504318, 0.9504318, 0
MOTB, 87846519, 1, 1, 0, 1
RCIN, 87846670, 1494, 1493, 982, 2006, 1678, 1494, 982, 1494, 1494, 1494, 1494, 1494, 1494, 1494
RCOU, 87846747, 982, 982, 982, 982, 982, 982, 0, 0, 0, 1750, 0, 0, 0, 0
NTUN, 87846771, -46.92607, -44.23372, -46.92607, -44.23372, 0, 0, 2.940685, -0.6202407, 12.94465, -67.06956
VIBE, 87846783, 0.02298063, 0.01973099, 0.0308919, 0, 0, 0
CTRL, 87846805, 2.824403E-05, 6.96711E-05, 2.241269E-05, 5.522355E-05, 6.904473E-06
IMU, 87883286, 8.965381E-05, -0.0006174599, -0.00101178, -0.6651183, -0.1695799, -9.67108, 0, 0, 37.92184, 1, 1, 1000, 1000
IMU2, 87883286, 0.009046613, 0.008269187, 0.0005945144, -0.6768986, -0.3348547, -9.854642, 0, 0, 0, 1, 1, 773, 980
IMU3, 87883286, 8.480891E-06, 0.00253186, -0.000200853, -0.487393, -0.2609694, -9.851496, 0, 0, 35.44641, 1, 1, 1001, 1001
IMU, 87923233, 0.0004132408, 0.0005427552, -0.001527339, -0.6564764, -0.1550454, -9.67167, 0, 0, 37.92477, 1, 1, 1000, 1000
IMU2, 87923233, 0.004865157, 0.01003824, -0.0003660517, -0.5587796, -0.3812738, -9.794156, 0, 0, 0, 1, 1, 773, 980
IMU3, 87923233, -0.0003068219, 0.003396988, -0.0003486951, -0.4906854, -0.2677185, -9.834363, 0, 0, 35.44884, 1, 1, 1001, 1001
BARO, 87943402, 0.4845006, 101835.4, 34.50, -0.02982493, 87943, 0, 28.76829
BAR2, 87943402, 0.683838, 101818.8, 32.04, -0.02982493, 87943, 0, 28.76829
CTUN, 87943462, 0, 0, 0, 0.1998871, 0.57029, 0.57029, 0.48, 0.00, 0.00, 0, 3, 3
CURR, 87945827, 23.23058, 0.373347, 8.123616, 0.00, 0, 0, 0, 0, 0, 0, 0, 0, 0, 0
POWR, 87945844, 5.182031, 5.484, 3
MAG, 87945885, -34, 160, 449, -50, -56, -81, 0, 0, 0, 1, 87945864
MAG2, 87945885, -31, 126, 294, -81, -78, -2, 0, 0, 0, 1, 87945871
MAG3, 87945885, 53, -144, 626, 0, 0, 0, 0, 0, 0, 1, 87945879
ATT, 87946143, 1.22, 1.22, -3.79, -3.79, 263.09, 263.10, 0.01, 0.00
NKF1, 87946155, 1.22, -3.79, 263.09, 0.02905811, -0.005755646, -0.02997207, 0, -0.4699323, -0.4395625, -0.5703799, 0.00, 0.01, -0.03
NKF2, 87946155, 11, 0.00, 0.00, 0.00, 0.00, 0.00, 155, 45, 446, 0, 0, 0, 0
NKF3, 87946155, 0.05, 0.00, -0.04, 0.01, -0.05, -0.01, 0, 0, 0, 0.50, 0.00
NKF4, 87946155, 0.01, 0.00, 0.00, 0.00, 0.00, 0.0001119915, 0, 0, 0, 16, 9087, 0, 0
NKF5, 87946155, 0, 0, 0, 0, 0.09, -0.47, 0.04, 0.05, 0.14, 0.0003130074, 0.002584767, 0.005277374
NKQ1, 87946155, 0.663048, -0.01897945, -0.02970102, -0.7477466
NKF6, 87946155, 2.77, -2.65, 264.15, 0.2318079, 0.2449256, 0.05714891, 0, -0.2637045, -0.2134387, -0.3255263, 0.20, 0.26, 0.00
NKF7, 87946155, -13, 0.00, 0.00, 0.00, 0.00, 0.00, 150, 43, 448, 0, 0, 0, 0
NKF8, 87946155, 0.24, 0.23, 0.05, 0.14, 0.10, 0.21, 0, 0, 0, 0.58, 0.00
NKF9, 87946155, 0.07, 0.03, 0.01, 0.00, 0.00, 0.0008695912, 0, 0, 0, 16, 9087, 0, 0
NKQ2, 87946155, 0.6701862, -0.002247326, -0.03323807, -0.741445
AHR2, 87946379, 1.92, -2.44, 265.88, 23.5, 46.9858988, -123.5917572, 0.6812831, -0.004124134, -0.02683957, -0.7315162
POS, 87946406, 46.985899, -123.5917578, 23.03, 0.01037993, 0.5703799
RATE, 87946420, 0.004039185, 0.004039185, 0.0001205476, -0.01489228, -0.01489228, -3.366478E-05, -0.07268516, -0.07268516, 4.773706E-06, 1.27306, 1.27306, 0
MOTB, 87946443, 1, 1, 0, 1
RCIN, 87946457, 1494, 1493, 982, 2006, 1678, 1494, 982, 1494, 1494, 1494, 1494, 1494, 1494, 1494
RCOU, 87946889, 982, 982, 982, 982, 982, 982, 0, 0, 0, 1750, 0, 0, 0, 0
NTUN, 87946913, -46.99323, -43.95625, -46.99323, -43.95625, 0, 0, 2.905811, -0.5755646, 12.93713, -67.10157
VIBE, 87946926, 0.01944593, 0.0214136, 0.03245426, 0, 0, 0
CTRL, 87946947, 2.813647E-05, 6.920989E-05, 2.44718E-05, 5.998859E-05, 6.278293E-06
IMU, 87964085, 0.0008790973, 0.0004565358, -0.0008442292, -0.6727214, -0.1674792, -9.687396, 0, 0, 37.92783, 1, 1, 1000, 1000
IMU2, 87964085, 0.005331691, 0.00656182, 0.001927184, -0.5966464, -0.2827034, -9.89971, 0, 0, 0, 1, 1, 773, 980
IMU3, 87964085, -0.0005364797, 0.001770088, 0.0006468477, -0.4877831, -0.2673014, -9.856236, 0, 0, 35.45074, 1, 1, 1001, 1001
GPS, 88004804, 3, 514106200, 1949, 12, 0.97, 46.9858988, -123.5917572, 23.70, 0.041, 241.2486, 0.072, 1
GPA, 88004804, 1.40, 0.62, 1.08, 0.24, 1, 88004
IMU, 88004883, 0.0006942927, 0.00120726, -0.0004363326, -0.6692595, -0.1602515, -9.68103, 0, 0, 37.93091, 1, 1, 1000, 1000
IMU2, 88004883, 0.006167017, 0.006450654, -0.0008247257, -0.5859551, -0.398955, -9.983671, 0, 0, 0, 1, 1, 773, 980
IMU3, 88004883, -0.0007716786, 0.002355074, 0.0004454011, -0.4986586, -0.2597958, -9.855671, 0, 0, 35.4529, 1, 1, 1001, 1001
BARO, 88045202, 0.703218, 101832.9, 34.50, -0.2636918, 88045, 0, 28.76829
BAR2, 88045202, 0.3626833, 101822.5, 32.04, -0.2636918, 88045, 0, 28.76829
CTUN, 88045262, 0, 0, 0, 0.1998871, 0.5715777, 0.5715777, 0.70, 0.00, 0.00, 0, 3, 3
IMU, 88045333, -0.0004288796, -0.0004029749, -0.00227768, -0.6653076, -0.1615132, -9.671831, 0, 0, 37.93302, 1, 1, 1000, 1000
IMU2, 88045333, 0.009948095, 0.003083802, 0.0002528094, -0.6310964, -0.294769, -9.916451, 0, 0, 0, 1, 1, 773, 980
IMU3, 88045333, -0.001062492, 0.003308106, 0.0007588957, -0.4874084, -0.2690185, -9.87205, 0, 0, 35.4554, 1, 1, 1001, 1001
CURR, 88047303, 23.22976, 0.3181337, 8.132585, 0.00, 0, 0, 0, 0, 0, 0, 0, 0, 0, 0
POWR, 88047317, 5.177197, 5.472, 3
MAG, 88047361, -35, 160, 448, -50, -56, -81, 0, 0, 0, 1, 88047340
MAG2, 88047361, -30, 126, 294, -81, -78, -2, 0, 0, 0, 1, 88047348
MAG3, 88047361, 57, -144, 624, 0, 0, 0, 0, 0, 0, 1, 88047355
ATT, 88047839, 1.22, 1.22, -3.79, -3.79, 263.08, 263.09, 0.01, 0.00
NKF1, 88047855, 1.22, -3.79, 263.08, 0.03018777, -0.005005845, -0.0306409, 0, -0.4694054, -0.4375696, -0.5716695, 0.00, 0.01, -0.03
NKF2, 88047855, 11, 0.00, 0.00, 0.00, 0.00, 0.00, 155, 45, 446, 0, 0, 0, 0
NKF3, 88047855, -0.01, -0.01, -0.10, 0.01, -0.05, -0.04, 0, 0, 0, -0.32, 0.00
NKF4, 88047855, 0.02, 0.00, 0.00, 0.00, 0.00, 0.0001231214, 0, 0, 0, 16, 9087, 0, 0
NKF5, 88047855, 0, 0, 0, 0, 0.08, -0.47, 0.04, 0.05, 0.14, 0.000242241, 0.002295715, 0.006000239
NKQ1, 88047855, 0.6630139, -0.01897474, -0.02968635, -0.7477776
NKF6, 88047855, 2.77, -2.66, 264.15, 0.2337394, 0.2458331, 0.05603055, 0, -0.2593294, -0.2071303, -0.3275155, 0.20, 0.27, 0.00
NKF7, 88047855, -13, 0.00, 0.00, 0.00, 0.00, 0.00, 150, 43, 448, 0, 0, 0, 0
NKF8, 88047855, 0.17, 0.20, -0.01, 0.15, 0.11, 0.17, 0, 0, 0, -0.37, 0.00
NKF9, 88047855, 0.05, 0.02, 0.01, 0.00, 0.00, 0.0008991024, 0, 0, 0, 16, 9087, 0, 0
NKQ2, 88047855, 0.6702031, -0.002287593, -0.03335709, -0.7414243
AHR2, 88048268, 1.92, -2.46, 265.87, 23.72, 46.9858988, -123.5917572, 0.6812305, -0.0042861, -0.02695313, -0.7315601
POS, 88048295, 46.985899, -123.5917578, 23.03, 0.01166947, 0.5716695
RATE, 88048309, -0.01946094, -0.01946094, -8.663829E-05, -0.04736845, -0.04736845, 4.002154E-05, -0.08993163, -0.08993163, 1.191297E-05, 1.288605, 1.288605, 0
MOTB, 88048332, 1, 1, 0, 1
RCIN, 88048346, 1494, 1493, 982, 1978, 1678, 1494, 982, 1494, 1494, 1494, 1494, 1494, 1494, 1494
RCOU, 88048424, 982, 982, 982, 982, 982, 982, 0, 0, 0, 1750, 0, 0, 0, 0
NTUN, 88048448, -46.94054, -43.75696, -46.94054, -43.75696, 0, 0, 3.018777, -0.5005845, 12.92194, -67.07446
VIBE, 88048654, 0.01884076, 0.01981601, 0.03458028, 0, 0, 0
CTRL, 88048679, 2.607015E-05, 6.476988E-05, 2.302034E-05, 5.584425E-05, 6.815423E-06
IMU, 88085230, 0.0008861589, -0.0003629649, -0.001250046, -0.6532928, -0.1630825, -9.663412, 0, 0, 37.93474, 1, 1, 1000, 1000
IMU2, 88085230, 0.004283404, 0.008396552, -0.003184216, -0.6529582, -0.3140074, -9.945205, 0, 0, 0, 1, 1, 773, 980
IMU3, 88085230, -0.0004840135, 0.001844329, 0.001152692, -0.4861072, -0.2617921, -9.868299, 0, 0, 35.4578, 1, 1, 1001, 1001
UBX2, 88125275, 0, -48, 142, -128, 255
IMU, 88125386, 0.0004920017, -0.0004234201, -0.0005380139, -0.6556324, -0.1763444, -9.654314, 0, 0, 37.93617, 1, 1, 1000, 1000
IMU2, 88125386, 0.00590942, 0.007504127, 0.001437402, -0.6291121, -0.3609704, -9.912261, 0, 0, 0, 1, 1, 773, 980
IMU3, 88125386, -0.0003971062, 0.0009957971, -8.802208E-06, -0.4825439, -0.2706142, -9.851292, 0, 0, 35.45991, 1, 1, 1001, 1001
BARO, 88145455, 0.4374349, 101836, 34.51, -0.08902851, 88145, 0, 28.76829
BAR2, 88145455, 0.6312351, 101819.5, 32.05, -0.08902851, 88145, 0, 28.76829
CTUN, 88145511, 0, 0, 0, 0.1998871, 0.5703036, 0.5703036, 0.43, 0.00, 0.00, 0, 2, 2
CURR, 88147266, 23.23679, 0.3096618, 8.141184, 0.00, 0, 0, 0, 0, 0, 0, 0, 0, 0, 0
POWR, 88147280, 5.178809, 5.486, 3
MAG, 88147324, -33, 160, 449, -50, -56, -81, 0, 0, 0, 1, 88147299
MAG2, 88147324, -31, 126, 295, -81, -78, -2, 0, 0, 0, 1, 88147306
MAG3, 88147324, 56, -141, 624, 0, 0, 0, 0, 0, 0, 1, 88147314
ATT, 88147808, 1.22, 1.22, -3.79, -3.79, 263.08, 263.09, 0.01, 0.00
NKF1, 88147820, 1.22, -3.79, 263.08, 0.03075771, -0.004527236, -0.02952816, 0, -0.4681986, -0.434451, -0.5703921, 0.00, 0.01, -0.03
NKF2, 88147820, 12, 0.00, 0.00, 0.00, 0.00, 0.00, 155, 45, 446, 0, 0, 0, 0
NKF3, 88147820, -0.01, -0.01, -0.10, 0.01, -0.05, -0.07, 0, 0, 0, 0.18, 0.00
NKF4, 88147820, 0.02, 0.00, 0.00, 0.00, 0.00, 0.0001052009, 0, 0, 0, 16, 9087, 0, 0
NKF5, 88147820, 0, 0, 0, 0, 0.08, -0.47, 0.04, 0.05, 0.14, 0.0001949903, 0.001789876, 0.005663362
NKQ1, 88147820, 0.6629924, -0.01898203, -0.0296864, -0.7477965
NKF6, 88147820, 2.77, -2.67, 264.15, 0.2333125, 0.2450451, 0.05586253, 0, -0.2598231, -0.2065244, -0.3283211, 0.20, 0.27, 0.00
NKF7, 88147820, -14, 0.00, 0.00, 0.00, 0.00, 0.00, 150, 43, 448, 0, 0, 0, 0
NKF8, 88147820, 0.17, 0.20, -0.01, 0.15, 0.11, 0.14, 0, 0, 0, 0.23, 0.00
NKF9, 88147820, 0.05, 0.02, 0.00, 0.00, 0.00, 0.0008638784, 0, 0, 0, 16, 9087, 0, 0
NKQ2, 88147820, 0.670201, -0.002360104, -0.03333063, -0.7414271
AHR2, 88148028, 1.95, -2.47, 265.86, 23.45, 46.9858988, -123.5917572, 0.6811404, -0.004180995, -0.02715687, -0.7316371
POS, 88148055, 46.985899, -123.5917578, 23.03, 0.01039214, 0.5703921
RATE, 88148068, 0.08683378, 0.08683378, 0.0001534454, -0.009465016, -0.009465016, -3.737424E-05, -0.01956331, -0.01956331, 2.177818E-06, 0.9051323, 0.9051323, 0
MOTB, 88148288, 1, 1, 0, 1
RCIN, 88148301, 1494, 1493, 982, 1718, 1678, 1494, 982, 1494, 1494, 1494, 1494, 1494, 1494, 1494
RCOU, 88148380, 982, 982, 982, 982, 982, 982, 0, 0, 0, 1750, 0, 0, 0, 0
NTUN, 88148404, -46.81986, -43.4451, -46.81986, -43.4451, 0, 0, 3.075771, -0.4527236, 12.90942, -67.0845
VIBE, 88148460, 0.01871686, 0.02142528, 0.03230091, 0, 0, 0
CTRL, 88148482, 2.757526E-05, 6.71091E-05, 2.205067E-05, 5.359796E-05, 6.746074E-06
IMU, 88165053, 3.449055E-05, 0.001018066, -0.002077967, -0.6548074, -0.1832122, -9.677896, 0, 0, 37.93747, 1, 1, 1000, 1000
IMU2, 88165053, 0.007245621, 0.008561619, -4.02276E-05, -0.6245471, -0.3344929, -9.86487, 0, 0, 0, 1, 1, 773, 980
IMU3, 88165053, -0.0002424012, 0.002270815, -0.0002834774, -0.4936606, -0.2599868, -9.87332, 0, 0, 35.4622, 1, 1, 1001, 1001
GPS, 88205847, 3, 514106400, 1949, 12, 0.97, 46.9858988, -123.591757, 23.72, 0.011, 241.2486, -0.035, 1
GPA, 88205847, 1.40, 0.62, 1.08, 0.23, 1, 88205
IMU, 88205920, 0.0009024008, 0.0006102333, -0.0012609, -0.6619235, -0.1717471, -9.668479, 0, 0, 37.93863, 1, 1, 1000, 1000
IMU2, 88205920, 0.005791453, 0.008144032, 0.001717432, -0.6748954, -0.3580079, -10.01641, 0, 0, 0, 1, 1, 773, 980
IMU3, 88205920, -0.0003328632, 0.002299278, -0.0003742964, -0.4912694, -0.2613586, -9.849593, 0, 0, 35.46451, 1, 1, 1001, 1001
BARO, 88245963, 0.5980122, 101834.1, 34.52, 0.1258627, 88245, 0, 28.76829
BAR2, 88245963, 0.5204921, 101820.8, 32.05, 0.1258627, 88245, 0, 28.76829
CTUN, 88246026, 0, 0, 0, 0.1998871, 0.5700457, 0.5700457, 0.59, 0.00, 0.00, 0, 3, 3
IMU, 88246281, 0.0005714702, 0.0005049215, -0.0002542938, -0.6573838, -0.1652013, -9.676851, 0, 0, 37.93956, 1, 1, 1000, 1000
IMU2, 88246281, 0.007355115, 0.006066611, 0.0004924317, -0.6428467, -0.3157908, -9.922426, 0, 0, 0, 1, 1, 773, 980
IMU3, 88246281, 0.0008161456, 0.002947921, 0.0006687639, -0.4897472, -0.2592608, -9.840158, 0, 0, 35.46686, 1, 1, 1001, 1001
CURR, 88248131, 23.22976, 0.3444257, 8.150835, 0.00, 0, 0, 0, 0, 0, 0, 0, 0, 0, 0
POWR, 88248145, 5.183642, 5.486, 3
MAG, 88248190, -34, 160, 449, -50, -56, -81, 0, 0, 0, 1, 88248164
MAG2, 88248190, -30, 127, 294, -81, -78, -2, 0, 0, 0, 1, 88248172
MAG3, 88248190, 54, -138, 624, 0, 0, 0, 0, 0, 0, 1, 88248184
ATT, 88248303, 1.22, 1.22, -3.79, -3.79, 263.08, 263.08, 0.01, 0.00
NKF1, 88248315, 1.22, -3.79, 263.07, 0.03131408, -0.004269869, -0.03023861, 0, -0.4664673, -0.4323326, -0.5701364, 0.00, 0.01, -0.03
NKF2, 88248315, 12, 0.00, 0.00, 0.00, 0.00, 0.00, 155, 45, 446, 0, 0, 0, 0
NKF3, 88248315, 0.03, 0.00, 0.00, 0.01, -0.06, 0.13, 0, 0, 0, 0.46, 0.00
NKF4, 88248315, 0.00, 0.00, 0.00, 0.00, 0.00, 9.3994E-05, 0, 0, 0, 16, 9087, 0, 0
NKF5, 88248315, 0, 0, 0, 0, 0.09, -0.47, 0.04, 0.05, 0.14, 0.0002316921, 0.002716704, 0.006426455
NKQ1, 88248315, 0.6629634, -0.01895892, -0.02967931, -0.747823
NKF6, 88248315, 2.77, -2.67, 264.15, 0.2350742, 0.250989, 0.05039698, 0, -0.2556077, -0.2009295, -0.3294385, 0.20, 0.27, 0.00
NKF7, 88248315, -13, 0.00, 0.00, 0.00, 0.00, 0.00, 150, 43, 448, 0, 0, 0, 0
NKF8, 88248315, 0.21, 0.23, 0.09, 0.15, 0.09, 0.35, 0, 0, 0, 0.60, 0.00
NKF9, 88248315, 0.07, 0.02, 0.02, 0.00, 0.00, 0.0008493366, 0, 0, 0, 16, 9087, 0, 0
NKQ2, 88248315, 0.670205, -0.002382127, -0.03337649, -0.7414214
AHR2, 88248862, 1.96, -2.48, 265.85, 23.61, 46.9858988, -123.591757, 0.6810823, -0.004200911, -0.02727394, -0.7316867
POS, 88249035, 46.9858991, -123.5917577, 23.03, 0.01013644, 0.5701364
RATE, 88249053, 0.0346614, 0.0346614, -4.576319E-05, 0.01721797, 0.01721797, -3.820388E-05, 0.02589695, 0.02589695, -1.463622E-05, 1.597404, 1.597404, 0
MOTB, 88249076, 1, 1, 0, 1
RCIN, 88249089, 1494, 1493, 982, 1496, 1678, 1494, 982, 1494, 1494, 1494, 1494, 1494, 1494, 1494
RCOU, 88249162, 982, 982, 982, 982, 982, 982, 0, 0, 0, 1750, 0, 0, 0, 0
NTUN, 88249186, -46.64673, -43.23326, -46.64673, -43.23326, 0, 0, 3.131408, -0.4269869, 12.93155, -67.04442
VIBE, 88249198, 0.0194972, 0.02015292, 0.02653642, 0, 0, 0
CTRL, 88249220, 2.732548E-05, 6.756251E-05, 2.035881E-05, 4.997202E-05, 6.92048E-06
IMU, 88285943, 0.000219427, 0.0005441724, -0.0009413798, -0.6585295, -0.1725666, -9.690881, 0, 0, 37.94118, 1, 1, 1000, 1000
IMU2, 88285943, 0.006654817, 0.008689404, 0.002486604, -0.600557, -0.4523964, -9.95758, 0, 0, 0, 1, 1, 773, 980
IMU3, 88285943, 0.0003216697, 0.00205249, -0.0001406457, -0.4779755, -0.2704796, -9.848757, 0, 0, 35.4683, 1, 1, 1001, 1001
IMU, 88325792, -2.593676E-05, -0.0005172021, -0.001495193, -0.66193, -0.1655715, -9.672239, 0, 0, 37.94339, 1, 1, 1000, 1000
IMU2, 88325792, 0.007282109, 0.01096237, 0.002010509, -0.6230425, -0.2762825, -9.892029, 0, 0, 0, 1, 1, 773, 980
IMU3, 88325792, -5.808082E-05, 0.001868283, 0.001002486, -0.4910315, -0.2684807, -9.845451, 0, 0, 35.46891, 1, 1, 1001, 1001
BARO, 88345811, 0.5066492, 101835.2, 34.52, 0.01502283, 88345, 0, 28.76829
BAR2, 88345811, 0.4900378, 101821.1, 32.06, 0.01502283, 88345, 0, 28.76829
CTUN, 88345871, 0, 0, 0, 0.1998871, 0.5721309, 0.5721309, 0.50, 0.00, 0.00, 0, 3, 3
CURR, 88348150, 23.2386, 0.3593246, 8.160819, 0.00, 0, 0, 0, 0, 0, 0, 0, 0, 0, 0
POWR, 88348208, 5.178809, 5.464, 3
MAG, 88348248, -34, 160, 449, -50, -56, -81, 0, 0, 0, 1, 88348227
MAG2, 88348248, -32, 125, 294, -81, -78, -2, 0, 0, 0, 1, 88348235
MAG3, 88348248, 55, -140, 625, 0, 0, 0, 0, 0, 0, 1, 88348243
ATT, 88348509, 1.22, 1.22, -3.79, -3.79, 263.07, 263.08, 0.01, 0.00
NKF1, 88348521, 1.22, -3.79, 263.07, 0.03154175, -0.004285609, -0.03238675, 0, -0.465867, -0.4296709, -0.5722281, 0.00, 0.01, -0.03
NKF2, 88348521, 12, 0.00, 0.00, 0.00, 0.00, 0.00, 155, 45, 446, 0, 0, 0, 0
NKF3, 88348521, 0.03, 0.00, 0.00, 0.01, -0.06, -0.13, 0, 0, 0, 0.02, 0.00
NKF4, 88348521, 0.00, 0.00, 0.00, 0.00, 0.00, 9.497404E-05, 0, 0, 0, 16, 9087, 0, 0
NKF5, 88348521, 0, 0, 0, 0, 0.09, -0.47, 0.04, 0.05, 0.14, 0.0001807212, 0.002270312, 0.004610677
NKQ1, 88348521, 0.6629465, -0.0189643, -0.02966962, -0.7478382
NKF6, 88348521, 2.77, -2.67, 264.16, 0.2343954, 0.2484654, 0.04806558, 0, -0.2568626, -0.1999417, -0.3336267, 0.20, 0.27, 0.00
NKF7, 88348521, -14, 0.00, 0.00, 0.00, 0.00, 0.00, 150, 43, 448, 0, 0, 0, 0
NKF8, 88348521, 0.21, 0.23, 0.09, 0.15, 0.09, 0.08, 0, 0, 0, 0.10, 0.00
NKF9, 88348521, 0.07, 0.02, 0.00, 0.00, 0.00, 0.0008728918, 0, 0, 0, 16, 9087, 0, 0
NKQ2, 88348521, 0.6702419, -0.002350328, -0.03341546, -0.7413864
AHR2, 88348995, 1.93, -2.49, 265.84, 23.52, 46.9858988, -123.591757, 0.6810489, -0.004412276, -0.02721138, -0.7317188
POS, 88349030, 46.9858991, -123.5917577, 23.03, 0.01222809, 0.5722281
RATE, 88349044, 0.01470999, 0.01470999, -4.600469E-05, 0.002219474, 0.002219474, -2.666289E-05, -0.01643529, -0.01643529, 1.440244E-06, 4.105282, 4.105282, 0
MOTB, 88349067, 1, 1, 0, 1
RCIN, 88349089, 1494, 1493, 982, 1495, 1678, 1494, 982, 1494, 1494, 1494, 1494, 1494, 1494, 1494
RCOU, 88349168, 982, 982, 982, 982, 982, 982, 0, 0, 0, 1750, 0, 0, 0, 0
NTUN, 88349282, -46.5867, -42.96709, -46.5867, -42.96709, 0, 0, 3.154175, -0.4285609, 12.90957, -67.03748
VIBE, 88349295, 0.02132778, 0.01976305, 0.03139024, 0, 0, 0
CTRL, 88349321, 2.419105E-05, 5.965303E-05, 2.116092E-05, 5.148441E-05, 7.400528E-06
IMU, 88365869, -0.0002249457, 0.0001873901, -0.001042682, -0.6523067, -0.1761396, -9.688139, 0, 0, 37.94585, 1, 1, 1000, 1000
IMU2, 88365869, 0.01008274, 0.004549793, -0.002308438, -0.593248, -0.3228551, -9.954353, 0, 0, 0, 1, 1, 773, 980
IMU3, 88365869, 0.001590964, 0.001428391, -0.0006684004, -0.4920769, -0.2659735, -9.867516, 0, 0, 35.46838, 1, 1, 1001, 1001
GPS, 88406475, 3, 514106600, 1949, 12, 0.97, 46.9858988, -123.591757, 23.75, 0.021, 241.2486, -0.029, 1
GPA, 88406475, 1.40, 0.62, 1.08, 0.22, 1, 88406
IMU, 88406792, 3.766313E-05, -3.785105E-05, -0.0008964463, -0.6560135, -0.1590888, -9.683716, 0, 0, 37.94915, 1, 1, 1000, 1000
IMU2, 88406792, 0.005467724, 0.01022039, 0.00179051, -0.6074841, -0.3287578, -9.941079, 0, 0, 0, 1, 1, 773, 980
IMU3, 88406792, -0.0002351609, 0.002388924, 0.000448421, -0.503661, -0.2651059, -9.855107, 0, 0, 35.46747, 1, 1, 1001, 1001
BARO, 88448506, 0.5426407, 101834.8, 34.53, -0.1282558, 88448, 0, 28.76829
BAR2, 88448506, 0.6755323, 101819, 32.06, -0.1282558, 88448, 0, 28.76829
CTUN, 88448805, 0, 0, 0, 0.1998871, 0.573807, 0.573807, 0.54, 0.00, 0.00, 0, 3, 3
IMU, 88448877, 0.000655358, -0.0001805222, -0.0006871088, -0.6669885, -0.1628362, -9.671385, 0, 0, 37.95261, 1, 1, 1000, 1000
IMU2, 88448877, 0.006709113, 0.007198242, 0.001971214, -0.6407161, -0.3539298, -9.837442, 0, 0, 0, 1, 1, 773, 980
IMU3, 88448877, 0.0001074762, 0.002278838, -0.0001204618, -0.4792598, -0.2569814, -9.852893, 0, 0, 35.46712, 1, 1, 1001, 1001
CURR, 88450699, 23.21598, 0.3233921, 8.170032, 0.00, 0, 0, 0, 0, 0, 0, 0, 0, 0, 0
POWR, 88450712, 5.178809, 5.474, 3
MAG, 88450752, -34, 160, 450, -50, -56, -81, 0, 0, 0, 1, 88450731
MAG2, 88450752, -32, 126, 294, -81, -78, -2, 0, 0, 0, 1, 88450739
MAG3, 88450752, 51, -140, 623, 0, 0, 0, 0, 0, 0, 1, 88450746
ATT, 88450869, 1.22, 1.22, -3.79, -3.79, 263.07, 263.08, 0.01, 0.00
NKF1, 88450881, 1.22, -3.79, 263.07, 0.03250152, -0.004194116, -0.0343254, 0, -0.4647468, -0.427852, -0.5738756, 0.00, 0.01, -0.03
NKF2, 88450881, 12, 0.00, 0.00, 0.00, 0.00, 0.00, 155, 45, 446, 0, 0, 0, 0
NKF3, 88450881, 0.04, 0.01, 0.00, 0.01, -0.05, 0.02, 0, 0, 0, 0.04, 0.00
NKF4, 88450881, 0.00, 0.00, 0.00, 0.00, 0.00, 9.593483E-05, 0, 0, 0, 16, 9087, 0, 0
NKF5, 88450881, 0, 0, 0, 0, 0.09, -0.47, 0.04, 0.05, 0.14, 0.0002452732, 0.004249197, 0.005949021
NKQ1, 88450881, 0.6629351, -0.01895974, -0.02968227, -0.747848
NKF6, 88450881, 2.78, -2.67, 264.16, 0.2327541, 0.248702, 0.05153698, 0, -0.2534634, -0.1947521, -0.3363764, 0.20, 0.27, 0.00
NKF7, 88450881, -14, 0.00, 0.00, 0.00, 0.00, 0.00, 150, 43, 448, 0, 0, 0, 0
NKF8, 88450881, 0.22, 0.24, 0.07, 0.15, 0.10, 0.24, 0, 0, 0, 0.19, 0.00
NKF9, 88450881, 0.07, 0.02, 0.01, 0.00, 0.00, 0.0008901855, 0, 0, 0, 16, 9087, 0, 0
NKQ2, 88450881, 0.6702651, -0.002350974, -0.03344277, -0.7413642
AHR2, 88451190, 1.92, -2.50, 265.84, 23.56, 46.9858988, -123.591757, 0.6809952, -0.004585293, -0.02718258, -0.7317689
POS, 88451217, 46.9858991, -123.5917577, 23.03, 0.01387562, 0.5738756
RATE, 88451275, 0.05129659, 0.05129659, -0.0001213156, -0.034823, -0.034823, 1.807055E-05, -0.01018352, -0.01018352, 1.554175E-06, 1.77536, 1.77536, 0
MOTB, 88451298, 1, 1, 0, 1
RCIN, 88451312, 1494, 1493, 982, 1494, 1678, 1494, 982, 1494, 1494, 1494, 1494, 1494, 1494, 1494
RCOU, 88451391, 982, 982, 982, 982, 982, 982, 0, 0, 0, 1750, 0, 0, 0, 0
NTUN, 88451417, -46.47468, -42.7852, -46.47468, -42.7852, 0, 0, 3.250152, -0.4194116, 12.93172, -67.05042
VIBE, 88451430, 0.02081516, 0.02190483, 0.02952857, 0, 0, 0
CTRL, 88451730, 2.762066E-05, 7.025205E-05, 2.167931E-05, 5.356785E-05, 6.42804E-06
IMU, 88488063, -0.0001091244, -0.0001142893, -0.001043222, -0.6549795, -0.1621878, -9.662557, 0, 0, 37.95586, 1, 1, 1000, 1000
IMU2, 88488063, 0.007661291, 0.006382391, -0.00297881, -0.6534382, -0.3125162, -9.848177, 0, 0, 0, 1, 1, 773, 980
IMU3, 88488063, -0.0003616247, 0.00328418, -0.0001789332, -0.5064982, -0.2637553, -9.853333, 0, 0, 35.46754, 1, 1, 1001, 1001
IMU, 88528107, 0.0007120346, -0.0003607392, -0.001780556, -0.6554273, -0.1691368, -9.679996, 0, 0, 37.95845, 1, 1, 1000, 1000
IMU2, 88528107, 0.004359657, 0.00863534, -0.002128086, -0.6618372, -0.3594574, -9.88497, 0, 0, 0, 1, 1, 773, 980
IMU3, 88528107, 0.0003615202, 0.002470312, 0.001396133, -0.4969244, -0.2558698, -9.859869, 0, 0, 35.46828, 1, 1, 1001, 1001
BARO, 88548229, 0.5841693, 101834.3, 34.53, -0.06019102, 88548, 0, 28.76829
BAR2, 88548229, 0.6478465, 101819.3, 32.06, -0.06019102, 88548, 0, 28.76829
CTUN, 88548289, 0, 0, 0, 0.1998871, 0.576363, 0.576363, 0.58, 0.00, 0.00, 0, 3, 3
CURR, 88550801, 23.22328, 0.3391673, 8.179463, 0.00, 0, 0, 0, 0, 0, 0, 0, 0, 0, 0
POWR, 88550815, 5.154639, 5.462, 3
MAG, 88550859, -34, 159, 449, -50, -56, -81, 0, 0, 0, 1, 88550834
MAG2, 88550859, -30, 126, 294, -81, -78, -2, 0, 0, 0, 1, 88550846
MAG3, 88550859, 52, -140, 619, 0, 0, 0, 0, 0, 0, 1, 88550854
ATT, 88550972, 1.22, 1.22, -3.79, -3.79, 263.06, 263.07, 0.01, 0.00
NKF1, 88551170, 1.22, -3.79, 263.06, 0.03257598, -0.004575512, -0.03565725, 0, -0.4647886, -0.4258257, -0.5764698, 0.00, 0.01, -0.03
NKF2, 88551170, 12, 0.00, 0.00, 0.00, 0.00, 0.00, 155, 45, 446, 0, 0, 0, 0
NKF3, 88551170, 0.04, 0.01, 0.00, 0.01, -0.05, -0.06, 0, 0, 0, 0.21, 0.00
NKF4, 88551170, 0.00, 0.00, 0.00, 0.00, 0.00, 0.0001012201, 0, 0, 0, 16, 9087, 0, 0
NKF5, 88551170, 0, 0, 0, 0, 0.09, -0.47, 0.04, 0.05, 0.14, 0.0002195152, 0.003065654, 0.005427914
NKQ1, 88551170, 0.6628849, -0.01897464, -0.02969402, -0.7478917
NKF6, 88551170, 2.77, -2.68, 264.15, 0.2317091, 0.2501326, 0.05411108, 0, -0.2556596, -0.1947117, -0.3403817, 0.20, 0.27, 0.01
NKF7, 88551170, -14, 0.00, 0.00, 0.00, 0.00, 0.00, 150, 43, 448, 0, 0, 0, 0
NKF8, 88551170, 0.22, 0.24, 0.07, 0.15, 0.10, 0.15, 0, 0, 0, 0.36, 0.00
NKF9, 88551170, 0.07, 0.02, 0.01, 0.00, 0.00, 0.0009122245, 0, 0, 0, 16, 9087, 0, 0
NKQ2, 88551170, 0.670173, -0.002398491, -0.0334319, -0.7414478
AHR2, 88551370, 1.91, -2.51, 265.82, 23.6, 46.9858988, -123.591757, 0.6808696, -0.004666022, -0.02717743, -0.7318854
POS, 88551397, 46.9858991, -123.5917577, 23.03, 0.01646979, 0.5764698
RATE, 88551411, 0.03732722, 0.03732722, -7.174446E-05, 0.009301149, 0.009301149, 3.01689E-05, -0.1054129, -0.1054129, 6.049371E-06, 2.627659, 2.627659, 0
MOTB, 88551434, 1, 1, 0, 1
RCIN, 88551447, 1494, 1493, 982, 1494, 1678, 1494, 982, 1494, 1494, 1494, 1494, 1494, 1494, 1494
RCOU, 88551520, 982, 982, 982, 982, 982, 982, 0, 0, 0, 1750, 0, 0, 0, 0
NTUN, 88551893, -46.47886, -42.58257, -46.47886, -42.58257, 0, 0, 3.257598, -0.4575512, 12.9207, -67.08825
VIBE, 88551906, 0.02134242, 0.01907286, 0.03170153, 0, 0, 0
CTRL, 88551927, 2.568098E-05, 6.555374E-05, 2.031973E-05, 5.043236E-05, 6.882363E-06
IMU, 88568062, 0.0009121764, 0.0003037505, -0.001463197, -0.6623981, -0.1823758, -9.658685, 0, 0, 37.96159, 1, 1, 1000, 1000
IMU2, 88568062, 0.004635755, 0.004849872, -0.004780419, -0.7122016, -0.3420653, -9.865042, 0, 0, 0, 1, 1, 773, 980
IMU3, 88568062, 0.0003015935, 0.002469905, 0.0001687329, -0.4850972, -0.260004, -9.868569, 0, 0, 35.46828, 1, 1, 1001, 1001
GPS, 88608870, 3, 514106800, 1949, 12, 0.97, 46.9858988, -123.5917569, 23.78, 0.03, 241.2486, 0.013, 1
GPA, 88608870, 1.40, 0.62, 1.08, 0.16, 1, 88608
IMU, 88608947, 0.0004271528, -0.0005557647, -0.001554878, -0.6593977, -0.1671287, -9.65633, 0, 0, 37.96496, 1, 1, 1000, 1000
IMU2, 88608947, 0.006150177, 0.00948661, 0.001050678, -0.5627686, -0.22576, -9.918613, 0, 0, 0, 1, 1, 773, 980
IMU3, 88608947, 5.834616E-05, 0.002854833, -0.0002236284, -0.4979453, -0.2547391, -9.843266, 0, 0, 35.46874, 1, 1, 1001, 1001
BARO, 88649162, 0.5758636, 101834.4, 34.53, 0.05727858, 88649, 0, 28.76829
BAR2, 88649162, 0.5481778, 101820.4, 32.07, 0.05727858, 88649, 0, 28.76829
CTUN, 88649233, 0, 0, 0, 0.1998871, 0.578817, 0.578817, 0.57, 0.00, 0.00, 0, 3, 3
IMU, 88649305, 0.0001460667, -0.0004931069, -0.0009556507, -0.6518738, -0.1710952, -9.679081, 0, 0, 37.96822, 1, 1, 1000, 1000
IMU2, 88649305, 0.006564528, 0.009812252, -0.004103214, -0.5636262, -0.3157587, -9.92405, 0, 0, 0, 1, 1, 773, 980
IMU3, 88649305, 0.001396181, 0.002904342, -0.0007021088, -0.4906115, -0.2571568, -9.872767, 0, 0, 35.47048, 1, 1, 1001, 1001
CURR, 88651697, 23.22238, 0.3476392, 8.189207, 0.00, 0, 0, 0, 0, 0, 0, 0, 0, 0, 0
POWR, 88651711, 5.162695, 5.457, 3
MAG, 88651751, -35, 160, 449, -50, -56, -81, 0, 0, 0, 1, 88651730
MAG2, 88651751, -30, 126, 294, -81, -78, -2, 0, 0, 0, 1, 88651737
MAG3, 88651751, 53, -142, 629, 0, 0, 0, 0, 0, 0, 1, 88651745
ATT, 88652008, 1.22, 1.22, -3.79, -3.79, 263.06, 263.07, 0.01, 0.00
NKF1, 88652027, 1.22, -3.79, 263.06, 0.03271887, -0.005277334, -0.03626896, 0, -0.4641572, -0.4243917, -0.5789621, 0.00, 0.01, -0.03
NKF2, 88652027, 12, 0.00, 0.00, 0.00, 0.00, 0.00, 155, 45, 446, 0, 0, 0, 0
NKF3, 88652027, 0.05, -0.02, -0.04, 0.01, -0.06, -0.03, 0, 0, 0, 0.10, 0.00
NKF4, 88652027, 0.01, 0.00, 0.00, 0.00, 0.00, 0.0001064597, 0, 0, 0, 16, 9087, 0, 0
NKF5, 88652027, 0, 0, 0, 0, 0.09, -0.47, 0.04, 0.05, 0.14, 0.0003344998, 0.005648588, 0.006334619
NKQ1, 88652027, 0.6628741, -0.0189907, -0.02971305, -0.7479
NKF6, 88652027, 2.77, -2.67, 264.15, 0.2389277, 0.2512729, 0.05404955, 0, -0.2515329, -0.1883949, -0.342547, 0.20, 0.27, 0.01
NKF7, 88652027, -14, 0.00, 0.00, 0.00, 0.00, 0.00, 150, 43, 448, 0, 0, 0, 0
NKF8, 88652027, 0.23, 0.20, 0.03, 0.14, 0.10, 0.18, 0, 0, 0, 0.22, 0.00
NKF9, 88652027, 0.07, 0.02, 0.01, 0.00, 0.00, 0.0009259403, 0, 0, 0, 16, 9087, 0, 0
NKQ2, 88652027, 0.6701484, -0.002372457, -0.03340514, -0.7414714
AHR2, 88652226, 1.91, -2.51, 265.80, 23.59, 46.9858988, -123.5917569, 0.6807891, -0.00469936, -0.02714613, -0.7319613
POS, 88652253, 46.9858991, -123.5917576, 23.03, 0.01896216, 0.5789621
RATE, 88652267, -0.01243076, -0.01243076, 0.000138343, -0.0724503, -0.0724503, 0.000166158, -0.02231016, -0.02231016, 2.63626E-06, 0.7692337, 0.7692337, 0
MOTB, 88652290, 1, 1, 0, 1
RCIN, 88652303, 1494, 1493, 982, 1494, 1678, 1494, 982, 1494, 1494, 1494, 1494, 1494, 1494, 1494
RCOU, 88652707, 982, 982, 982, 982, 982, 982, 0, 0, 0, 1750, 0, 0, 0, 0
NTUN, 88652731, -46.41572, -42.43917, -46.41572, -42.43917, 0, 0, 3.271887, -0.5277334, 12.92095, -67.1375
VIBE, 88652744, 0.02010342, 0.02080398, 0.03716146, 0, 0, 0
CTRL, 88652765, 2.374742E-05, 6.078518E-05, 2.047519E-05, 4.922817E-05, 7.708407E-06
DU32, 88687011, 7, 50718168
TERR, 88687098, 2, 46.9858991, -123.5917576, 100, 20.21126, 0.01060202, 0, 504
IMU, 88689109, 6.005564E-05, -0.0006773061, -0.001974186, -0.6637332, -0.1805284, -9.666494, 0, 0, 37.97201, 1, 1, 1000, 1000
IMU2, 88689109, 0.006376522, 0.009219946, -0.001834692, -0.6797612, -0.4213287, -9.874903, 0, 0, 0, 1, 1, 773, 980
IMU3, 88689109, -0.0004360932, 0.002763378, 0.0008902234, -0.4853501, -0.2558967, -9.856768, 0, 0, 35.47297, 1, 1, 1001, 1001
IMU, 88729135, -0.0001060559, 0.0006177378, -0.0005148286, -0.6486291, -0.1802705, -9.668583, 0, 0, 37.97578, 1, 1, 1000, 1000
IMU2, 88729135, 0.009900777, 0.009440374, -0.001067977, -0.6138153, -0.3329348, -9.917308, 0, 0, 0, 1, 1, 773, 980
IMU3, 88729135, 0.001288244, 0.003190098, 0.0001421439, -0.4926067, -0.2661036, -9.868235, 0, 0, 35.47593, 1, 1, 1001, 1001
EV, 88740992, 57
BARO, 88749294, 0.5094178, 101835.1, 34.54, 0.1142692, 88749, 0, 28.76829
BAR2, 88749294, 0.7115238, 101818.5, 32.07, 0.1142692, 88749, 0, 28.76829
CTUN, 88749350, 0, 0, 0, 0.1998871, 0.5804572, 0.5804572, 0.50, 0.00, 0.00, 0, 3, 3
CURR, 88751282, 23.22418, 0.3447179, 8.198743, 0.00, 0, 0, 0, 0, 0, 0, 0, 0, 0, 0
POWR, 88751345, 5.162695, 5.457, 3
MAG, 88751385, -34, 159, 448, -50, -56, -81, 0, 0, 0, 1, 88751364
MAG2, 88751385, -30, 126, 294, -81, -78, -2, 0, 0, 0, 1, 88751372
MAG3, 88751385, 56, -145, 628, 0, 0, 0, 0, 0, 0, 1, 88751379
ATT, 88751889, 1.22, 1.22, -3.79, -3.79, 263.06, 263.07, 0.01, 0.00
NKF1, 88751901, 1.22, -3.79, 263.06, 0.03116882, -0.004712799, -0.03646138, 0, -0.4652913, -0.4212967, -0.5805666, 0.00, 0.01, -0.03
NKF2, 88751901, 12, 0.00, 0.00, 0.00, 0.00, 0.00, 155, 45, 446, 0, 0, 0, 0
NKF3, 88751901, 0.05, -0.02, -0.04, 0.01, -0.06, 0.00, 0, 0, 0, 0.20, 0.00
